{"type": "FeatureCollection", "name": "centros_poblados_GUAVIARE", "crs": {"type": "name", "properties": {"name": "urn:ogc:def:crs:OGC:1.3:CRS84"}}, "features": [{"type": "Feature", "properties": {"nombre": "Barranquillita", "depto": "GUAVIARE", "cod_dane": "952002001", "municipio": "Miraflores", "tipo": "VEREDA"}, "geometry": {"type": "Point", "coordinates": [-71.9693183503872, 1.21553176186351]}}, {"type": "Feature", "properties": {"nombre": "Calamar", "depto": "GUAVIARE", "cod_dane": "950151000", "municipio": "Calamar", "tipo": "CABECERA"}, "geometry": {"type": "Point", "coordinates": [-72.6583897241222, 1.96149827693297]}}, {"type": "Feature", "properties": {"nombre": "Capricho", "depto": "GUAVIARE", "cod_dane": "950012016", "municipio": "San Jose del Guaviare", "tipo": "VEREDA"}, "geometry": {"type": "Point", "coordinates": [-71.9940343438245, 2.80364290267508]}}, {"type": "Feature", "properties": {"nombre": "Cerritos", "depto": "GUAVIARE", "cod_dane": "950252003", "municipio": "El Retorno", "tipo": "VEREDA"}, "geometry": {"type": "Point", "coordinates": [-72.7486931073346, 2.20188729152287]}}, {"type": "Feature", "properties": {"nombre": "El Retorno", "depto": "GUAVIARE", "cod_dane": "950251000", "municipio": "El Retorno", "tipo": "CABECERA"}, "geometry": {"type": "Point", "coordinates": [-72.6314052709896, 2.33370840545926]}}, {"type": "Feature", "properties": {"nombre": "La Carpa", "depto": "GUAVIARE", "cod_dane": "950012023", "municipio": "San Jose del Guaviare", "tipo": "VEREDA"}, "geometry": {"type": "Point", "coordinates": [-72.9354406473273, 2.46769073470283]}}, {"type": "Feature", "properties": {"nombre": "La Libertad", "depto": "GUAVIARE", "cod_dane": "950252001", "municipio": "El Retorno", "tipo": "VEREDA"}, "geometry": {"type": "Point", "coordinates": [-72.6497514798378, 2.18514290553629]}}, {"type": "Feature", "properties": {"nombre": "Lagos Del Dorado", "depto": "GUAVIARE", "cod_dane": "952002002", "municipio": "Miraflores", "tipo": "VEREDA"}, "geometry": {"type": "Point", "coordinates": [-72.1402053204274, 1.50566877888061]}}, {"type": "Feature", "properties": {"nombre": "Las Pavas", "depto": "GUAVIARE", "cod_dane": "952002003", "municipio": "Miraflores", "tipo": "VEREDA"}, "geometry": {"type": "Point", "coordinates": [-72.2595777212473, 1.532898625309]}}, {"type": "Feature", "properties": {"nombre": "Miraflores", "depto": "GUAVIARE", "cod_dane": "952001000", "municipio": "Miraflores", "tipo": "CABECERA"}, "geometry": {"type": "Point", "coordinates": [-71.9547081722024, 1.33971230780012]}}, {"type": "Feature", "properties": {"nombre": "Morichal", "depto": "GUAVIARE", "cod_dane": "950252004", "municipio": "El Retorno", "tipo": "VEREDA"}, "geometry": {"type": "Point", "coordinates": [-72.8361596347594, 2.1967701064871]}}, {"type": "Feature", "properties": {"nombre": "Puerto Arturo", "depto": "GUAVIARE", "cod_dane": "950012010", "municipio": "San Jose del Guaviare", "tipo": "VEREDA"}, "geometry": {"type": "Point", "coordinates": [-72.869223328437, 2.58247433883816]}}, {"type": "Feature", "properties": {"nombre": "Puerto Cachicamo", "depto": "GUAVIARE", "cod_dane": "950012012", "municipio": "San Jose del Guaviare", "tipo": "VEREDA"}, "geometry": {"type": "Point", "coordinates": [-73.3487399991231, 2.32826011826077]}}, {"type": "Feature", "properties": {"nombre": "San Francisco", "depto": "GUAVIARE", "cod_dane": "950012014", "municipio": "San Jose del Guaviare", "tipo": "VEREDA"}, "geometry": {"type": "Point", "coordinates": [-73.1610334843774, 2.3615557109494]}}, {"type": "Feature", "properties": {"nombre": "San Jose Del Guaviare", "depto": "GUAVIARE", "cod_dane": "950011000", "municipio": "San Jose del GuaviareSAN JOSE DEL ", "tipo": "VEREDA"}, "geometry": {"type": "Point", "coordinates": [-72.6423949373165, 2.57120671271509]}}, {"type": "Feature", "properties": {"nombre": "Tomachipan", "depto": "GUAVIARE", "cod_dane": "950012019", "municipio": "San Jose del Guaviare", "tipo": "VEREDA"}, "geometry": {"type": "Point", "coordinates": [-71.7612914177877, 2.26292279666303]}}]}