{"type": "FeatureCollection", "name": "centros_poblados_SANTANDER", "crs": {"type": "name", "properties": {"name": "urn:ogc:def:crs:OGC:1.3:CRS84"}}, "features": [{"type": "Feature", "properties": {"nombre": "Acapulco", "depto": "SANTANDER", "cod_dane": "683072007", "municipio": "Giron", "tipo": "VEREDA"}, "geometry": {"type": "Point", "coordinates": [-73.1381787090074, 7.02058728044192]}}, {"type": "Feature", "properties": {"nombre": "Aguada", "depto": "SANTANDER", "cod_dane": "680131000", "municipio": "Aguada", "tipo": "CABECERA"}, "geometry": {"type": "Point", "coordinates": [-73.5258258754109, 6.16457767900314]}}, {"type": "Feature", "properties": {"nombre": "Albania", "depto": "SANTANDER", "cod_dane": "680201000", "municipio": "Albania", "tipo": "CABECERA"}, "geometry": {"type": "Point", "coordinates": [-73.9175686732065, 5.76185253561652]}}, {"type": "Feature", "properties": {"nombre": "Aratoca", "depto": "SANTANDER", "cod_dane": "680511000", "municipio": "Aratoca", "tipo": "CABECERA"}, "geometry": {"type": "Point", "coordinates": [-73.0212231238528, 6.69694343882956]}}, {"type": "Feature", "properties": {"nombre": "Badillo", "depto": "SANTANDER", "cod_dane": "685752001", "municipio": "Puerto Wilches", "tipo": "VEREDA"}, "geometry": {"type": "Point", "coordinates": [-73.8583022320284, 7.97725789313465]}}, {"type": "Feature", "properties": {"nombre": "Baraya", "depto": "SANTANDER", "cod_dane": "683182001", "municipio": "Guaca", "tipo": "VEREDA"}, "geometry": {"type": "Point", "coordinates": [-72.8194914346474, 6.98262145025461]}}, {"type": "Feature", "properties": {"nombre": "Barbosa", "depto": "SANTANDER", "cod_dane": "680771000", "municipio": "Barbosa", "tipo": "CABECERA"}, "geometry": {"type": "Point", "coordinates": [-73.6189244279586, 5.93566715414585]}}, {"type": "Feature", "properties": {"nombre": "Barichara", "depto": "SANTANDER", "cod_dane": "680791000", "municipio": "Barichara", "tipo": "CABECERA"}, "geometry": {"type": "Point", "coordinates": [-73.2269176725303, 6.6382140882689]}}, {"type": "Feature", "properties": {"nombre": "Barrancabermeja", "depto": "SANTANDER", "cod_dane": "680811000", "municipio": "Barrancabermeja", "tipo": "CABECERA"}, "geometry": {"type": "Point", "coordinates": [-73.8531699166036, 7.06725198234239]}}, {"type": "Feature", "properties": {"nombre": "Barrio Nuevo", "depto": "SANTANDER", "cod_dane": "682552001", "municipio": "El Playon", "tipo": "VEREDA"}, "geometry": {"type": "Point", "coordinates": [-73.2391272331388, 7.57464829227333]}}, {"type": "Feature", "properties": {"nombre": "Berbeo", "depto": "SANTANDER", "cod_dane": "681012002", "municipio": "Bolivar", "tipo": "VEREDA"}, "geometry": {"type": "Point", "coordinates": [-73.7551079858704, 6.07749902935514]}}, {"type": "Feature", "properties": {"nombre": "Berlin", "depto": "SANTANDER", "cod_dane": "688202001", "municipio": "Tona", "tipo": "VEREDA"}, "geometry": {"type": "Point", "coordinates": [-72.8817387802165, 7.18916880370449]}}, {"type": "Feature", "properties": {"nombre": "Betulia", "depto": "SANTANDER", "cod_dane": "680921000", "municipio": "Betulia", "tipo": "CABECERA"}, "geometry": {"type": "Point", "coordinates": [-73.2872734318888, 6.90259902737195]}}, {"type": "Feature", "properties": {"nombre": "Bucaramanga", "depto": "SANTANDER", "cod_dane": "680011000", "municipio": "Bucaramanga", "tipo": "CABECERA"}, "geometry": {"type": "Point", "coordinates": [-73.1358739213423, 7.11811712239692]}}, {"type": "Feature", "properties": {"nombre": "Cabrera", "depto": "SANTANDER", "cod_dane": "681211000", "municipio": "Cabrera", "tipo": "CABECERA"}, "geometry": {"type": "Point", "coordinates": [-73.2499272219262, 6.59437467769798]}}, {"type": "Feature", "properties": {"nombre": "Cachipay", "depto": "SANTANDER", "cod_dane": "687202002", "municipio": "Santa Helena del Opon", "tipo": "VEREDA"}, "geometry": {"type": "Point", "coordinates": [-73.6538122449794, 6.30031003653376]}}, {"type": "Feature", "properties": {"nombre": "Cachiri", "depto": "SANTANDER", "cod_dane": "687802001", "municipio": "Surata", "tipo": "VEREDA"}, "geometry": {"type": "Point", "coordinates": [-72.9927886147703, 7.47184755696219]}}, {"type": "Feature", "properties": {"nombre": "California", "depto": "SANTANDER", "cod_dane": "681321000", "municipio": "California", "tipo": "CABECERA"}, "geometry": {"type": "Point", "coordinates": [-72.9492527148544, 7.35092020038657]}}, {"type": "Feature", "properties": {"nombre": "Capitanejo", "depto": "SANTANDER", "cod_dane": "681471000", "municipio": "Capitanejo", "tipo": "CABECERA"}, "geometry": {"type": "Point", "coordinates": [-72.6988449836278, 6.53018804529069]}}, {"type": "Feature", "properties": {"nombre": "Carcasi", "depto": "SANTANDER", "cod_dane": "681521000", "municipio": "Carcasi", "tipo": "CABECERA"}, "geometry": {"type": "Point", "coordinates": [-72.6300760552017, 6.62935425937629]}}, {"type": "Feature", "properties": {"nombre": "Cepita", "depto": "SANTANDER", "cod_dane": "681601000", "municipio": "Cepita", "tipo": "CABECERA"}, "geometry": {"type": "Point", "coordinates": [-72.978109679071, 6.75630310084273]}}, {"type": "Feature", "properties": {"nombre": "Cerrito", "depto": "SANTANDER", "cod_dane": "681621000", "municipio": "Cerrito", "tipo": "CABECERA"}, "geometry": {"type": "Point", "coordinates": [-72.6987627981167, 6.84432022087564]}}, {"type": "Feature", "properties": {"nombre": "Charala", "depto": "SANTANDER", "cod_dane": "681671000", "municipio": "Charala", "tipo": "CABECERA"}, "geometry": {"type": "Point", "coordinates": [-73.150281934839, 6.28933871303929]}}, {"type": "Feature", "properties": {"nombre": "Charta", "depto": "SANTANDER", "cod_dane": "681691000", "municipio": "Charta", "tipo": "CABECERA"}, "geometry": {"type": "Point", "coordinates": [-72.971690262887, 7.28362784252539]}}, {"type": "Feature", "properties": {"nombre": "Chima", "depto": "SANTANDER", "cod_dane": "681761000", "municipio": "Chima", "tipo": "CABECERA"}, "geometry": {"type": "Point", "coordinates": [-73.3763431492587, 6.34468923151013]}}, {"type": "Feature", "properties": {"nombre": "Chipata", "depto": "SANTANDER", "cod_dane": "681791000", "municipio": "Chipata", "tipo": "CABECERA"}, "geometry": {"type": "Point", "coordinates": [-73.6408914358623, 6.06451100847901]}}, {"type": "Feature", "properties": {"nombre": "Cimitarra", "depto": "SANTANDER", "cod_dane": "681901000", "municipio": "Cimitarra", "tipo": "CABECERA"}, "geometry": {"type": "Point", "coordinates": [-73.9531067914803, 6.31737347367493]}}, {"type": "Feature", "properties": {"nombre": "Cincelada", "depto": "SANTANDER", "cod_dane": "682172001", "municipio": "Coromoro", "tipo": "VEREDA"}, "geometry": {"type": "Point", "coordinates": [-73.0813180380153, 6.24166117116213]}}, {"type": "Feature", "properties": {"nombre": "Cite", "depto": "SANTANDER", "cod_dane": "680772001", "municipio": "Barbosa", "tipo": "VEREDA"}, "geometry": {"type": "Point", "coordinates": [-73.6064148305176, 5.96841717051214]}}, {"type": "Feature", "properties": {"nombre": "Concepcion", "depto": "SANTANDER", "cod_dane": "682071000", "municipio": "Concepcion", "tipo": "CABECERA"}, "geometry": {"type": "Point", "coordinates": [-72.6977618781209, 6.77186450391229]}}, {"type": "Feature", "properties": {"nombre": "Confines", "depto": "SANTANDER", "cod_dane": "682091000", "municipio": "Confines", "tipo": "CABECERA"}, "geometry": {"type": "Point", "coordinates": [-73.2453023945723, 6.35922691812996]}}, {"type": "Feature", "properties": {"nombre": "Contratacion", "depto": "SANTANDER", "cod_dane": "682111000", "municipio": "Contratacion", "tipo": "CABECERA"}, "geometry": {"type": "Point", "coordinates": [-73.4781423424921, 6.29342302687201]}}, {"type": "Feature", "properties": {"nombre": "Coromoro", "depto": "SANTANDER", "cod_dane": "682171000", "municipio": "Coromoro", "tipo": "CABECERA"}, "geometry": {"type": "Point", "coordinates": [-73.0441605728431, 6.2984679893985]}}, {"type": "Feature", "properties": {"nombre": "Cuesta Rica", "depto": "SANTANDER", "cod_dane": "686152002", "municipio": "Rionegro", "tipo": "VEREDA"}, "geometry": {"type": "Point", "coordinates": [-73.2794111398303, 7.40918641860314]}}, {"type": "Feature", "properties": {"nombre": "Curiti", "depto": "SANTANDER", "cod_dane": "682291000", "municipio": "Curiti", "tipo": "CABECERA"}, "geometry": {"type": "Point", "coordinates": [-73.0723797093845, 6.60796092099799]}}, {"type": "Feature", "properties": {"nombre": "El Carmen De Chucuri", "depto": "SANTANDER", "cod_dane": "682351000", "municipio": "El Carmen de Chucuri", "tipo": "CABECERA"}, "geometry": {"type": "Point", "coordinates": [-73.5150122266665, 6.70152349843462]}}, {"type": "Feature", "properties": {"nombre": "El Conchal", "depto": "SANTANDER", "cod_dane": "684062003", "municipio": "Lebrija", "tipo": "VEREDA"}, "geometry": {"type": "Point", "coordinates": [-73.2648410896758, 7.28495732849063]}}, {"type": "Feature", "properties": {"nombre": "El Guacamayo", "depto": "SANTANDER", "cod_dane": "682451000", "municipio": "El Guacamayo", "tipo": "CABECERA"}, "geometry": {"type": "Point", "coordinates": [-73.5005076171359, 6.24818908164851]}}, {"type": "Feature", "properties": {"nombre": "El Guayabo", "depto": "SANTANDER", "cod_dane": "685752006", "municipio": "Puerto Wilches", "tipo": "VEREDA"}, "geometry": {"type": "Point", "coordinates": [-73.8380950253048, 7.95040729285868]}}, {"type": "Feature", "properties": {"nombre": "El Junco", "depto": "SANTANDER", "cod_dane": "684682002", "municipio": "Molagavita", "tipo": "VEREDA"}, "geometry": {"type": "Point", "coordinates": [-72.8013048035139, 6.64082949122783]}}, {"type": "Feature", "properties": {"nombre": "El Llanito", "depto": "SANTANDER", "cod_dane": "680812002", "municipio": "Barrancabermeja", "tipo": "VEREDA"}, "geometry": {"type": "Point", "coordinates": [-73.8519113065543, 7.16796311423368]}}, {"type": "Feature", "properties": {"nombre": "El Pedral", "depto": "SANTANDER", "cod_dane": "685752007", "municipio": "Puerto Wilches", "tipo": "VEREDA"}, "geometry": {"type": "Point", "coordinates": [-73.8491805929217, 7.22992255550538]}}, {"type": "Feature", "properties": {"nombre": "El Penon", "depto": "SANTANDER", "cod_dane": "682501000", "municipio": "El Penon", "tipo": "CABECERA"}, "geometry": {"type": "Point", "coordinates": [-73.8177941957916, 6.05945307378152]}}, {"type": "Feature", "properties": {"nombre": "El Playon", "depto": "SANTANDER", "cod_dane": "682551000", "municipio": "El Playon", "tipo": "CABECERA"}, "geometry": {"type": "Point", "coordinates": [-73.2067676539211, 7.47371646311859]}}, {"type": "Feature", "properties": {"nombre": "El Tobal", "depto": "SANTANDER", "cod_dane": "681522001", "municipio": "Carcasi", "tipo": "VEREDA"}, "geometry": {"type": "Point", "coordinates": [-72.5932654617872, 6.65475826504635]}}, {"type": "Feature", "properties": {"nombre": "Encino", "depto": "SANTANDER", "cod_dane": "682641000", "municipio": "Encino", "tipo": "CABECERA"}, "geometry": {"type": "Point", "coordinates": [-73.10286737222, 6.14117267529186]}}, {"type": "Feature", "properties": {"nombre": "Enciso", "depto": "SANTANDER", "cod_dane": "682661000", "municipio": "Enciso", "tipo": "CABECERA"}, "geometry": {"type": "Point", "coordinates": [-72.703475641603, 6.67259160926464]}}, {"type": "Feature", "properties": {"nombre": "Florian", "depto": "SANTANDER", "cod_dane": "682711000", "municipio": "El Florian", "tipo": "CABECERA"}, "geometry": {"type": "Point", "coordinates": [-73.9743776274174, 5.80625122593295]}}, {"type": "Feature", "properties": {"nombre": "Floridablanca", "depto": "SANTANDER", "cod_dane": "682761000", "municipio": "Floridablanca", "tipo": "CABECERA"}, "geometry": {"type": "Point", "coordinates": [-73.1019507804007, 7.07643488588347]}}, {"type": "Feature", "properties": {"nombre": "Galan", "depto": "SANTANDER", "cod_dane": "682961000", "municipio": "Galan", "tipo": "CABECERA"}, "geometry": {"type": "Point", "coordinates": [-73.2913983382524, 6.64176240191152]}}, {"type": "Feature", "properties": {"nombre": "Gambita", "depto": "SANTANDER", "cod_dane": "682981000", "municipio": "Gambita", "tipo": "CABECERA"}, "geometry": {"type": "Point", "coordinates": [-73.3474144047956, 5.94851459015783]}}, {"type": "Feature", "properties": {"nombre": "Giron", "depto": "SANTANDER", "cod_dane": "683071000", "municipio": "Giron", "tipo": "CABECERA"}, "geometry": {"type": "Point", "coordinates": [-73.1709935598458, 7.07628167392088]}}, {"type": "Feature", "properties": {"nombre": "Guaca", "depto": "SANTANDER", "cod_dane": "683181000", "municipio": "Guaca", "tipo": "CABECERA"}, "geometry": {"type": "Point", "coordinates": [-72.8592291702255, 6.87891009995428]}}, {"type": "Feature", "properties": {"nombre": "Guadalupe", "depto": "SANTANDER", "cod_dane": "683201000", "municipio": "Guadalupe", "tipo": "CABECERA"}, "geometry": {"type": "Point", "coordinates": [-73.4224089523083, 6.24900100017612]}}, {"type": "Feature", "properties": {"nombre": "Gualilo", "depto": "SANTANDER", "cod_dane": "688612002", "municipio": "Velez", "tipo": "VEREDA"}, "geometry": {"type": "Point", "coordinates": [-73.7207475062389, 6.18676834000911]}}, {"type": "Feature", "properties": {"nombre": "Guane", "depto": "SANTANDER", "cod_dane": "680792001", "municipio": "Barichara", "tipo": "VEREDA"}, "geometry": {"type": "Point", "coordinates": [-73.2433729222958, 6.68135270128328]}}, {"type": "Feature", "properties": {"nombre": "Guapota", "depto": "SANTANDER", "cod_dane": "683221000", "municipio": "Guapota", "tipo": "CABECERA"}, "geometry": {"type": "Point", "coordinates": [-73.3242802957452, 6.3107655252365]}}, {"type": "Feature", "properties": {"nombre": "Guavata", "depto": "SANTANDER", "cod_dane": "683241000", "municipio": "Guavata", "tipo": "CABECERA"}, "geometry": {"type": "Point", "coordinates": [-73.7039863386419, 5.95806937929658]}}, {"type": "Feature", "properties": {"nombre": "Guepsa", "depto": "SANTANDER", "cod_dane": "683271000", "municipio": "Guepsa", "tipo": "CABECERA"}, "geometry": {"type": "Point", "coordinates": [-73.5775404657659, 6.02810021666052]}}, {"type": "Feature", "properties": {"nombre": "Hato", "depto": "SANTANDER", "cod_dane": "683441000", "municipio": "Hato", "tipo": "CABECERA"}, "geometry": {"type": "Point", "coordinates": [-73.3117471794497, 6.54668356210925]}}, {"type": "Feature", "properties": {"nombre": "Jesus Maria", "depto": "SANTANDER", "cod_dane": "683681000", "municipio": "Jesus Maria", "tipo": "CABECERA"}, "geometry": {"type": "Point", "coordinates": [-73.7862060551287, 5.87939585092371]}}, {"type": "Feature", "properties": {"nombre": "Jordan", "depto": "SANTANDER", "cod_dane": "683701000", "municipio": "Jordan", "tipo": "CABECERA"}, "geometry": {"type": "Point", "coordinates": [-73.0994752921114, 6.73523107567782]}}, {"type": "Feature", "properties": {"nombre": "Kilometro Ocho", "depto": "SANTANDER", "cod_dane": "685752023", "municipio": "Puerto Wilches", "tipo": "VEREDA"}, "geometry": {"type": "Point", "coordinates": [-73.8444304804674, 7.33180749964858]}}, {"type": "Feature", "properties": {"nombre": "La Belleza", "depto": "SANTANDER", "cod_dane": "683771000", "municipio": "La Belleza", "tipo": "CABECERA"}, "geometry": {"type": "Point", "coordinates": [-73.9683476764575, 5.86195876828495]}}, {"type": "Feature", "properties": {"nombre": "La Bricha", "depto": "SANTANDER", "cod_dane": "684252003", "municipio": "Macaravita", "tipo": "VEREDA"}, "geometry": {"type": "Point", "coordinates": [-72.5593936242225, 6.51621765274607]}}, {"type": "Feature", "properties": {"nombre": "La Ceiba", "depto": "SANTANDER", "cod_dane": "686152009", "municipio": "Rionegro", "tipo": "VEREDA"}, "geometry": {"type": "Point", "coordinates": [-73.1896396790433, 7.41590055070956]}}, {"type": "Feature", "properties": {"nombre": "La Corcova", "depto": "SANTANDER", "cod_dane": "688202002", "municipio": "Tona", "tipo": "VEREDA"}, "geometry": {"type": "Point", "coordinates": [-73.0273908298156, 7.14421847040388]}}, {"type": "Feature", "properties": {"nombre": "La Fortuna", "depto": "SANTANDER", "cod_dane": "680812010", "municipio": "Barrancabermeja", "tipo": "VEREDA"}, "geometry": {"type": "Point", "coordinates": [-73.5580197932938, 7.13613909167742]}}, {"type": "Feature", "properties": {"nombre": "La Fuente", "depto": "SANTANDER", "cod_dane": "688952001", "municipio": "Zapatoca", "tipo": "VEREDA"}, "geometry": {"type": "Point", "coordinates": [-73.2838228171445, 6.7097072884663]}}, {"type": "Feature", "properties": {"nombre": "La Granja", "depto": "SANTANDER", "cod_dane": "687732001", "municipio": "Sucre", "tipo": "VEREDA"}, "geometry": {"type": "Point", "coordinates": [-73.9238523894142, 5.92948546807651]}}, {"type": "Feature", "properties": {"nombre": "La Hermosura", "depto": "SANTANDER", "cod_dane": "681012014", "municipio": "Bolivar", "tipo": "VEREDA"}, "geometry": {"type": "Point", "coordinates": [-73.7956076627006, 6.12144989257512]}}, {"type": "Feature", "properties": {"nombre": "La India", "depto": "SANTANDER", "cod_dane": "683852009", "municipio": "Landazuri", "tipo": "VEREDA"}, "geometry": {"type": "Point", "coordinates": [-74.0897649391726, 6.19789952544194]}}, {"type": "Feature", "properties": {"nombre": "La Palma", "depto": "SANTANDER", "cod_dane": "682982002", "municipio": "Gambita", "tipo": "VEREDA"}, "geometry": {"type": "Point", "coordinates": [-73.3880725924077, 5.87077300165051]}}, {"type": "Feature", "properties": {"nombre": "La Paz", "depto": "SANTANDER", "cod_dane": "683971000", "municipio": "La Paz", "tipo": "CABECERA"}, "geometry": {"type": "Point", "coordinates": [-73.593020801519, 6.1814291950086]}}, {"type": "Feature", "properties": {"nombre": "La Pradera", "depto": "SANTANDER", "cod_dane": "687732002", "municipio": "Sucre", "tipo": "VEREDA"}, "geometry": {"type": "Point", "coordinates": [-73.9129429499319, 5.87088696966425]}}, {"type": "Feature", "properties": {"nombre": "La Quitax", "depto": "SANTANDER", "cod_dane": "683772001", "municipio": "La Belleza", "tipo": "VEREDA"}, "geometry": {"type": "Point", "coordinates": [-74.0146012626442, 5.93919306759971]}}, {"type": "Feature", "properties": {"nombre": "Laguna De Ortices", "depto": "SANTANDER", "cod_dane": "686692005", "municipio": "San Andres", "tipo": "VEREDA"}, "geometry": {"type": "Point", "coordinates": [-72.8764224964608, 6.70336195886857]}}, {"type": "Feature", "properties": {"nombre": "Landazuri", "depto": "SANTANDER", "cod_dane": "683851000", "municipio": "Landazuri", "tipo": "CABECERA"}, "geometry": {"type": "Point", "coordinates": [-73.8125656348634, 6.22224600858578]}}, {"type": "Feature", "properties": {"nombre": "Las Bocas", "depto": "SANTANDER", "cod_dane": "683072002", "municipio": "Giron", "tipo": "VEREDA"}, "geometry": {"type": "Point", "coordinates": [-73.162365344384, 7.21815443435986]}}, {"type": "Feature", "properties": {"nombre": "Lebrija", "depto": "SANTANDER", "cod_dane": "684061000", "municipio": "Lebrija", "tipo": "CABECERA"}, "geometry": {"type": "Point", "coordinates": [-73.2240002858255, 7.11717938311057]}}, {"type": "Feature", "properties": {"nombre": "Llano De Palmas", "depto": "SANTANDER", "cod_dane": "686152011", "municipio": "Rionegro", "tipo": "VEREDA"}, "geometry": {"type": "Point", "coordinates": [-73.1995239389937, 7.24200649214804]}}, {"type": "Feature", "properties": {"nombre": "Los Chorros (San Jose)", "depto": "SANTANDER", "cod_dane": "686152027", "municipio": "Rionegro", "tipo": "VEREDA"}, "geometry": {"type": "Point", "coordinates": [-73.7625229774935, 7.69745161670498]}}, {"type": "Feature", "properties": {"nombre": "Los Laureles", "depto": "SANTANDER", "cod_dane": "680812009", "municipio": "Barrancabermeja", "tipo": "VEREDA"}, "geometry": {"type": "Point", "coordinates": [-73.8084912870641, 7.02160976545891]}}, {"type": "Feature", "properties": {"nombre": "Los Santos", "depto": "SANTANDER", "cod_dane": "684181000", "municipio": "Los Santos", "tipo": "CABECERA"}, "geometry": {"type": "Point", "coordinates": [-73.105276829676, 6.75873595087309]}}, {"type": "Feature", "properties": {"nombre": "Macaravita", "depto": "SANTANDER", "cod_dane": "684251000", "municipio": "Macaravita", "tipo": "CABECERA"}, "geometry": {"type": "Point", "coordinates": [-72.5967500958765, 6.50961034749906]}}, {"type": "Feature", "properties": {"nombre": "Malaga", "depto": "SANTANDER", "cod_dane": "684321000", "municipio": "Malaga", "tipo": "CABECERA"}, "geometry": {"type": "Point", "coordinates": [-72.7329028541297, 6.70538920207068]}}, {"type": "Feature", "properties": {"nombre": "Marta", "depto": "SANTANDER", "cod_dane": "683072003", "municipio": "Giron", "tipo": "VEREDA"}, "geometry": {"type": "Point", "coordinates": [-73.4275267816796, 7.11712979380079]}}, {"type": "Feature", "properties": {"nombre": "Matanza", "depto": "SANTANDER", "cod_dane": "684441000", "municipio": "Matanza", "tipo": "CABECERA"}, "geometry": {"type": "Point", "coordinates": [-73.0196411193018, 7.32569189607711]}}, {"type": "Feature", "properties": {"nombre": "Meseta San Rafael", "depto": "SANTANDER", "cod_dane": "680812004", "municipio": "Barrancabermeja", "tipo": "VEREDA"}, "geometry": {"type": "Point", "coordinates": [-73.5883444906878, 7.14672561535354]}}, {"type": "Feature", "properties": {"nombre": "Miralindo", "depto": "SANTANDER", "cod_dane": "683852007", "municipio": "Landazuri", "tipo": "VEREDA"}, "geometry": {"type": "Point", "coordinates": [-73.7568472134028, 6.31990157493461]}}, {"type": "Feature", "properties": {"nombre": "Mogotes", "depto": "SANTANDER", "cod_dane": "684641000", "municipio": "Mogotes", "tipo": "CABECERA"}, "geometry": {"type": "Point", "coordinates": [-72.9742473630638, 6.47773819491878]}}, {"type": "Feature", "properties": {"nombre": "Molagavita", "depto": "SANTANDER", "cod_dane": "684681000", "municipio": "Molagavita", "tipo": "CABECERA"}, "geometry": {"type": "Point", "coordinates": [-72.8124770233256, 6.67683946960218]}}, {"type": "Feature", "properties": {"nombre": "Ocamonte", "depto": "SANTANDER", "cod_dane": "684981000", "municipio": "Ocamonte", "tipo": "CABECERA"}, "geometry": {"type": "Point", "coordinates": [-73.1257895273444, 6.34292134337951]}}, {"type": "Feature", "properties": {"nombre": "Oiba", "depto": "SANTANDER", "cod_dane": "685001000", "municipio": "Oiba", "tipo": "CABECERA"}, "geometry": {"type": "Point", "coordinates": [-73.3038587602508, 6.27043928911182]}}, {"type": "Feature", "properties": {"nombre": "Olival", "depto": "SANTANDER", "cod_dane": "687702001", "municipio": "Suaita", "tipo": "VEREDA"}, "geometry": {"type": "Point", "coordinates": [-73.3430938985422, 6.15463104713313]}}, {"type": "Feature", "properties": {"nombre": "Onzaga", "depto": "SANTANDER", "cod_dane": "685021000", "municipio": "Onzaga", "tipo": "CABECERA"}, "geometry": {"type": "Point", "coordinates": [-72.8159384538819, 6.34673659987126]}}, {"type": "Feature", "properties": {"nombre": "Palmar", "depto": "SANTANDER", "cod_dane": "685221000", "municipio": "Palmar", "tipo": "CABECERA"}, "geometry": {"type": "Point", "coordinates": [-73.2946546719907, 6.54111295468912]}}, {"type": "Feature", "properties": {"nombre": "Palmas Socorro", "depto": "SANTANDER", "cod_dane": "685241000", "municipio": "Palmas del Socorro", "tipo": "CABECERA"}, "geometry": {"type": "Point", "coordinates": [-73.2916482803158, 6.40888370098221]}}, {"type": "Feature", "properties": {"nombre": "Papayal", "depto": "SANTANDER", "cod_dane": "686152013", "municipio": "Rionegro", "tipo": "VEREDA"}, "geometry": {"type": "Point", "coordinates": [-73.6436052833739, 7.61418577542486]}}, {"type": "Feature", "properties": {"nombre": "Paramo", "depto": "SANTANDER", "cod_dane": "685331000", "municipio": "Paramo", "tipo": "CABECERA"}, "geometry": {"type": "Point", "coordinates": [-73.173734506258, 6.41957797191212]}}, {"type": "Feature", "properties": {"nombre": "Pena Colorada", "depto": "SANTANDER", "cod_dane": "682662002", "municipio": "Enciso", "tipo": "VEREDA"}, "geometry": {"type": "Point", "coordinates": [-72.7100222421953, 6.64880267405379]}}, {"type": "Feature", "properties": {"nombre": "Piedecuesta", "depto": "SANTANDER", "cod_dane": "685471000", "municipio": "Piedecuesta", "tipo": "CABECERA"}, "geometry": {"type": "Point", "coordinates": [-73.0567576295662, 6.99553597289586]}}, {"type": "Feature", "properties": {"nombre": "Pinchote", "depto": "SANTANDER", "cod_dane": "685491000", "municipio": "Pinchote", "tipo": "CABECERA"}, "geometry": {"type": "Point", "coordinates": [-73.1763316184837, 6.53554726754983]}}, {"type": "Feature", "properties": {"nombre": "Provincia", "depto": "SANTANDER", "cod_dane": "686552004", "municipio": "Sabana de Torres", "tipo": "VEREDA"}, "geometry": {"type": "Point", "coordinates": [-73.4461332588715, 7.4192038554387]}}, {"type": "Feature", "properties": {"nombre": "Puente Nacional", "depto": "SANTANDER", "cod_dane": "685721000", "municipio": "Puente Nacional", "tipo": "CABECERA"}, "geometry": {"type": "Point", "coordinates": [-73.6808697629382, 5.88059737955831]}}, {"type": "Feature", "properties": {"nombre": "Puente Sogamoso", "depto": "SANTANDER", "cod_dane": "685752015", "municipio": "Puerto Wilches", "tipo": "VEREDA"}, "geometry": {"type": "Point", "coordinates": [-73.788693818641, 7.24943678040463]}}, {"type": "Feature", "properties": {"nombre": "Puerto Parra", "depto": "SANTANDER", "cod_dane": "685731000", "municipio": "Puerto Parra", "tipo": "CABECERA"}, "geometry": {"type": "Point", "coordinates": [-74.0598735520364, 6.6543337956595]}}, {"type": "Feature", "properties": {"nombre": "Puerto Wilches", "depto": "SANTANDER", "cod_dane": "685751000", "municipio": "Puerto Wilches", "tipo": "CABECERA"}, "geometry": {"type": "Point", "coordinates": [-73.9034104870776, 7.34858448159749]}}, {"type": "Feature", "properties": {"nombre": "Riachuelo", "depto": "SANTANDER", "cod_dane": "681672003", "municipio": "Charala", "tipo": "VEREDA"}, "geometry": {"type": "Point", "coordinates": [-73.0900377104664, 6.30578313770372]}}, {"type": "Feature", "properties": {"nombre": "Rionegro", "depto": "SANTANDER", "cod_dane": "686151000", "municipio": "Rionegro", "tipo": "CABECERA"}, "geometry": {"type": "Point", "coordinates": [-73.1537386479862, 7.26745916613858]}}, {"type": "Feature", "properties": {"nombre": "Sabana De Torres", "depto": "SANTANDER", "cod_dane": "686551000", "municipio": "Sabana de Torres", "tipo": "CABECERA"}, "geometry": {"type": "Point", "coordinates": [-73.5033341790368, 7.39676553388887]}}, {"type": "Feature", "properties": {"nombre": "Sabana Grande", "depto": "SANTANDER", "cod_dane": "687732003", "municipio": "Sucre", "tipo": "VEREDA"}, "geometry": {"type": "Point", "coordinates": [-73.9164682703995, 5.99278009079071]}}, {"type": "Feature", "properties": {"nombre": "Sabaneta", "depto": "SANTANDER", "cod_dane": "686552002", "municipio": "Sabana de Torres", "tipo": "VEREDA"}, "geometry": {"type": "Point", "coordinates": [-73.6494436168084, 7.35436359632453]}}, {"type": "Feature", "properties": {"nombre": "San Andres", "depto": "SANTANDER", "cod_dane": "686691000", "municipio": "San Andres", "tipo": "CABECERA"}, "geometry": {"type": "Point", "coordinates": [-72.8523231202869, 6.8153774152375]}}, {"type": "Feature", "properties": {"nombre": "San Benito", "depto": "SANTANDER", "cod_dane": "686731000", "municipio": "San Benito", "tipo": "CABECERA"}, "geometry": {"type": "Point", "coordinates": [-73.5130374652573, 6.12938523346342]}}, {"type": "Feature", "properties": {"nombre": "San Benito Nuevo", "depto": "SANTANDER", "cod_dane": "686732003", "municipio": "San Benito", "tipo": "VEREDA"}, "geometry": {"type": "Point", "coordinates": [-73.4998656297332, 6.12098146999733]}}, {"type": "Feature", "properties": {"nombre": "San Claver", "depto": "SANTANDER", "cod_dane": "685752024", "municipio": "Puerto Wilches", "tipo": "VEREDA"}, "geometry": {"type": "Point", "coordinates": [-73.7798626161202, 7.32800350363194]}}, {"type": "Feature", "properties": {"nombre": "San Gil", "depto": "SANTANDER", "cod_dane": "686791000", "municipio": "San Gil", "tipo": "CABECERA"}, "geometry": {"type": "Point", "coordinates": [-73.1380910621653, 6.55825851846717]}}, {"type": "Feature", "properties": {"nombre": "San Ignacio Del Opon", "depto": "SANTANDER", "cod_dane": "683852006", "municipio": "Landazuri", "tipo": "VEREDA"}, "geometry": {"type": "Point", "coordinates": [-73.6884644334687, 6.41572227963504]}}, {"type": "Feature", "properties": {"nombre": "San Joaquin", "depto": "SANTANDER", "cod_dane": "686821000", "municipio": "San Joaquin", "tipo": "CABECERA"}, "geometry": {"type": "Point", "coordinates": [-72.871114550684, 6.43042711362269]}}, {"type": "Feature", "properties": {"nombre": "San Jose De Miranda", "depto": "SANTANDER", "cod_dane": "686841000", "municipio": "San Jose de Miranda", "tipo": "CABECERA"}, "geometry": {"type": "Point", "coordinates": [-72.7369350228015, 6.66145210014181]}}, {"type": "Feature", "properties": {"nombre": "San Jose Suaita", "depto": "SANTANDER", "cod_dane": "687702002", "municipio": "Suaita", "tipo": "VEREDA"}, "geometry": {"type": "Point", "coordinates": [-73.4502281400536, 6.16037717115297]}}, {"type": "Feature", "properties": {"nombre": "San Miguel", "depto": "SANTANDER", "cod_dane": "686861000", "municipio": "San Miguel", "tipo": "CABECERA"}, "geometry": {"type": "Point", "coordinates": [-72.6494407754282, 6.57951677731955]}}, {"type": "Feature", "properties": {"nombre": "San Pablo", "depto": "SANTANDER", "cod_dane": "682112001", "municipio": "Contratacion", "tipo": "VEREDA"}, "geometry": {"type": "Point", "coordinates": [-73.5757116221486, 6.30763735994776]}}, {"type": "Feature", "properties": {"nombre": "San Rafael", "depto": "SANTANDER", "cod_dane": "686152031", "municipio": "Rionegro", "tipo": "VEREDA"}, "geometry": {"type": "Point", "coordinates": [-73.5795163343057, 7.6091416913757]}}, {"type": "Feature", "properties": {"nombre": "San Rafael De Chucuri", "depto": "SANTANDER", "cod_dane": "680812006", "municipio": "Barrancabermeja", "tipo": "VEREDA"}, "geometry": {"type": "Point", "coordinates": [-74.037166561872, 6.87942446526656]}}, {"type": "Feature", "properties": {"nombre": "San Vicente Chucuri", "depto": "SANTANDER", "cod_dane": "686891000", "municipio": "San Vicente de Chucuri", "tipo": "CABECERA"}, "geometry": {"type": "Point", "coordinates": [-73.4151237122006, 6.88156414722405]}}, {"type": "Feature", "properties": {"nombre": "Santa Barbara", "depto": "SANTANDER", "cod_dane": "687051000", "municipio": "Santa Barbara", "tipo": "CABECERA"}, "geometry": {"type": "Point", "coordinates": [-72.910305991314, 6.9933412695996]}}, {"type": "Feature", "properties": {"nombre": "Santa Cruz De La Colina", "depto": "SANTANDER", "cod_dane": "684442006", "municipio": "Matanza", "tipo": "VEREDA"}, "geometry": {"type": "Point", "coordinates": [-73.0993806710078, 7.3738763642164]}}, {"type": "Feature", "properties": {"nombre": "Santa Helena Del Opon", "depto": "SANTANDER", "cod_dane": "687201000", "municipio": "Santa Helena del Opon", "tipo": "CABECERA"}, "geometry": {"type": "Point", "coordinates": [-73.6198029239623, 6.3416314438755]}}, {"type": "Feature", "properties": {"nombre": "Santa Rita", "depto": "SANTANDER", "cod_dane": "682452003", "municipio": "El Guacamayo", "tipo": "VEREDA"}, "geometry": {"type": "Point", "coordinates": [-73.6042723301468, 6.29067136967105]}}, {"type": "Feature", "properties": {"nombre": "Santander", "depto": "SANTANDER", "cod_dane": "704292011SUCREMajagual", "municipio": "2", "tipo": "VEREDA"}, "geometry": {"type": "Point", "coordinates": [-74.6304403493174, 8.63332470210358]}}, {"type": "Feature", "properties": {"nombre": "Simacota", "depto": "SANTANDER", "cod_dane": "687451000", "municipio": "Simacota", "tipo": "CABECERA"}, "geometry": {"type": "Point", "coordinates": [-73.3408670678983, 6.4463435477653]}}, {"type": "Feature", "properties": {"nombre": "Sn Fernando", "depto": "SANTANDER", "cod_dane": "681902014", "municipio": "Cimitarra", "tipo": "VEREDA"}, "geometry": {"type": "Point", "coordinates": [-74.2686783721868, 6.24170720793428]}}, {"type": "Feature", "properties": {"nombre": "Socorro", "depto": "SANTANDER", "cod_dane": "687551000", "municipio": "Socorro", "tipo": "CABECERA"}, "geometry": {"type": "Point", "coordinates": [-73.2660689103949, 6.46985667983004]}}, {"type": "Feature", "properties": {"nombre": "Suaita", "depto": "SANTANDER", "cod_dane": "687701000", "municipio": "Suaita", "tipo": "CABECERA"}, "geometry": {"type": "Point", "coordinates": [-73.4463224897247, 6.10128602355352]}}, {"type": "Feature", "properties": {"nombre": "Sucre", "depto": "SANTANDER", "cod_dane": "687731000", "municipio": "Sucre", "tipo": "CABECERA"}, "geometry": {"type": "Point", "coordinates": [-73.7948698448911, 5.92123776878481]}}, {"type": "Feature", "properties": {"nombre": "Surata", "depto": "SANTANDER", "cod_dane": "687801000", "municipio": "Surata", "tipo": "CABECERA"}, "geometry": {"type": "Point", "coordinates": [-72.9876051946344, 7.36958582001734]}}, {"type": "Feature", "properties": {"nombre": "Tona", "depto": "SANTANDER", "cod_dane": "688201000", "municipio": "Tona", "tipo": "CABECERA"}, "geometry": {"type": "Point", "coordinates": [-72.9698371442213, 7.20489292595384]}}, {"type": "Feature", "properties": {"nombre": "Turbay", "depto": "SANTANDER", "cod_dane": "687802008", "municipio": "Surata", "tipo": "VEREDA"}, "geometry": {"type": "Point", "coordinates": [-73.0503417610955, 7.51718170172775]}}, {"type": "Feature", "properties": {"nombre": "Uribe Uribe", "depto": "SANTANDER", "cod_dane": "684062013", "municipio": "Lebrija", "tipo": "VEREDA"}, "geometry": {"type": "Point", "coordinates": [-73.3637883466649, 7.25145909801736]}}, {"type": "Feature", "properties": {"nombre": "Vado Real", "depto": "SANTANDER", "cod_dane": "687702003", "municipio": "Suaita", "tipo": "VEREDA"}, "geometry": {"type": "Point", "coordinates": [-73.415858059647, 6.07188501881305]}}, {"type": "Feature", "properties": {"nombre": "Valle De San Jose", "depto": "SANTANDER", "cod_dane": "688551000", "municipio": "Valle San Jose", "tipo": "CABECERA"}, "geometry": {"type": "Point", "coordinates": [-73.147216610487, 6.45095148532564]}}, {"type": "Feature", "properties": {"nombre": "Veinte De Julio", "depto": "SANTANDER", "cod_dane": "686152017", "municipio": "Rionegro", "tipo": "VEREDA"}, "geometry": {"type": "Point", "coordinates": [-73.5317395846332, 7.64978104957829]}}, {"type": "Feature", "properties": {"nombre": "Velez", "depto": "SANTANDER", "cod_dane": "688611000", "municipio": "Velez", "tipo": "CABECERA"}, "geometry": {"type": "Point", "coordinates": [-73.6762757027032, 6.01173988173828]}}, {"type": "Feature", "properties": {"nombre": "Vetas", "depto": "SANTANDER", "cod_dane": "688671000", "municipio": "Vetas", "tipo": "CABECERA"}, "geometry": {"type": "Point", "coordinates": [-72.8744461294626, 7.31230284074032]}}, {"type": "Feature", "properties": {"nombre": "Vijagual", "depto": "SANTANDER", "cod_dane": "685752018", "municipio": "Puerto Wilches", "tipo": "VEREDA"}, "geometry": {"type": "Point", "coordinates": [-73.8192573875317, 7.85272589354929]}}, {"type": "Feature", "properties": {"nombre": "Villanueva", "depto": "SANTANDER", "cod_dane": "688721000", "municipio": "Villanueva", "tipo": "CABECERA"}, "geometry": {"type": "Point", "coordinates": [-73.1778031561796, 6.67182634232156]}}, {"type": "Feature", "properties": {"nombre": "Zapatoca", "depto": "SANTANDER", "cod_dane": "688951000", "municipio": "Zapatoca", "tipo": "CABECERA"}, "geometry": {"type": "Point", "coordinates": [-73.275075463229, 6.81652445095923]}}]}