{"type": "FeatureCollection", "name": "centros_poblados_CAQUETA", "crs": {"type": "name", "properties": {"name": "urn:ogc:def:crs:OGC:1.3:CRS84"}}, "features": [{"type": "Feature", "properties": {"nombre": "Albania", "depto": "CAQUETA", "provincia": "CAQUET\u00c1", "cod_dane": "180291000", "municipio": "Albania", "tipo": "CABECERA"}, "geometry": {"type": "Point", "coordinates": [-75.8819480373569, 1.33187294945877]}}, {"type": "Feature", "properties": {"nombre": "Bel\u00e9n De Los Andaqu\u00edes", "depto": "CAQUETA", "provincia": "CAQUET\u00c1", "cod_dane": "180941000", "municipio": "Bel\u00e9n De Los Andaqu\u00edes", "tipo": "CABECERA"}, "geometry": {"type": "Point", "coordinates": [-75.8747936931497, 1.42310410447917]}}, {"type": "Feature", "properties": {"nombre": "Bolivia", "depto": "CAQUETA", "provincia": "CAQUET\u00c1", "cod_dane": "181502010", "municipio": "Cartagena Del Chair\u00e1", "tipo": "VEREDA"}, "geometry": {"type": "Point", "coordinates": [-75.1117465652253, 1.34880992150664]}}, {"type": "Feature", "properties": {"nombre": "Campo Hermoso", "depto": "CAQUETA", "provincia": "CAQUET\u00c1", "cod_dane": "187532004", "municipio": "San Vicente Del Cagu\u00e1n", "tipo": "VEREDA"}, "geometry": {"type": "Point", "coordinates": [-74.6944506662404, 1.92453550655291]}}, {"type": "Feature", "properties": {"nombre": "Cartagena Del Chair\u00e1", "depto": "CAQUETA", "provincia": "CAQUET\u00c1", "cod_dane": "181501000", "municipio": "Cartagena Del Chair\u00e1", "tipo": "CABECERA"}, "geometry": {"type": "Point", "coordinates": [-74.8479587466737, 1.3371721653059]}}, {"type": "Feature", "properties": {"nombre": "Curillo", "depto": "CAQUETA", "provincia": "CAQUET\u00c1", "cod_dane": "182051000", "municipio": "Curillo", "tipo": "CABECERA"}, "geometry": {"type": "Point", "coordinates": [-75.9236504291075, 1.03650370651847]}}, {"type": "Feature", "properties": {"nombre": "Danubio (Campo Alegre)", "depto": "CAQUETA", "provincia": "CAQUET\u00c1", "cod_dane": "187562004", "municipio": "Solano", "tipo": "VEREDA"}, "geometry": {"type": "Point", "coordinates": [-75.2166848000596, 1.01182017951167]}}, {"type": "Feature", "properties": {"nombre": "Dorado", "depto": "CAQUETA", "provincia": "CAQUET\u00c1", "cod_dane": "180292003", "municipio": "Albania", "tipo": "VEREDA"}, "geometry": {"type": "Point", "coordinates": [-75.8906846849223, 1.17552508813859]}}, {"type": "Feature", "properties": {"nombre": "El Doncello", "depto": "CAQUETA", "provincia": "CAQUET\u00c1", "cod_dane": "182471000", "municipio": "El Doncello", "tipo": "CABECERA"}, "geometry": {"type": "Point", "coordinates": [-75.2861502818613, 1.68188962043128]}}, {"type": "Feature", "properties": {"nombre": "El Guamo", "depto": "CAQUETA", "provincia": "CAQUET\u00c1", "cod_dane": "181502005", "municipio": "Cartagena Del Chair\u00e1", "tipo": "VEREDA"}, "geometry": {"type": "Point", "coordinates": [-74.3060500118297, 0.192542043956605]}}, {"type": "Feature", "properties": {"nombre": "El Para", "depto": "CAQUETA", "provincia": "CAQUET\u00c1", "cod_dane": "180012009", "municipio": "Florencia", "tipo": "VEREDA"}, "geometry": {"type": "Point", "coordinates": [-75.4423951286907, 1.80791396445578]}}, {"type": "Feature", "properties": {"nombre": "El Paujil", "depto": "CAQUETA", "provincia": "CAQUET\u00c1", "cod_dane": "182561000", "municipio": "El Paujil", "tipo": "CABECERA"}, "geometry": {"type": "Point", "coordinates": [-75.3294126511845, 1.57371941078704]}}, {"type": "Feature", "properties": {"nombre": "El Portal La Mono", "depto": "CAQUETA", "provincia": "CAQUET\u00c1", "cod_dane": "180942001", "municipio": "Bel\u00e9n De Los Andaqu\u00edes", "tipo": "VEREDA"}, "geometry": {"type": "Point", "coordinates": [-75.8119463057232, 1.3065378287026]}}, {"type": "Feature", "properties": {"nombre": "El Triunfo", "depto": "CAQUETA", "provincia": "CAQUET\u00c1", "cod_dane": "184102005", "municipio": "La Monta\u00f1ita", "tipo": "VEREDA"}, "geometry": {"type": "Point", "coordinates": [-75.3424134495905, 1.39099224436066]}}, {"type": "Feature", "properties": {"nombre": "Florencia", "depto": "CAQUETA", "provincia": "CAQUET\u00c1", "cod_dane": "180011000", "municipio": "Florencia", "tipo": "CABECERA"}, "geometry": {"type": "Point", "coordinates": [-75.6108619573966, 1.6192117260642]}}, {"type": "Feature", "properties": {"nombre": "Fraguita", "depto": "CAQUETA", "provincia": "CAQUET\u00c1", "cod_dane": "186102001", "municipio": "San Jos\u00e9 Del Fragua", "tipo": "VEREDA"}, "geometry": {"type": "Point", "coordinates": [-76.1515899939342, 1.18807185024104]}}, {"type": "Feature", "properties": {"nombre": "Guayabal", "depto": "CAQUETA", "provincia": "CAQUET\u00c1", "cod_dane": "187532015", "municipio": "San Vicente Del Cagu\u00e1n", "tipo": "VEREDA"}, "geometry": {"type": "Point", "coordinates": [-74.8859026672668, 2.69929112770819]}}, {"type": "Feature", "properties": {"nombre": "Kil\u00e3\u00a0Metro 18", "depto": "CAQUETA", "provincia": "CAQUET\u00c1", "cod_dane": "188602002", "municipio": "Valpara\u00edso", "tipo": "VEREDA"}, "geometry": {"type": "Point", "coordinates": [-75.6484294490402, 1.06312839302993]}}, {"type": "Feature", "properties": {"nombre": "Kilometro 30", "depto": "CAQUETA", "provincia": "CAQUET\u00c1", "cod_dane": "187852001", "municipio": "Solita", "tipo": "VEREDA"}, "geometry": {"type": "Point", "coordinates": [-75.6330955731634, 0.952619894335233]}}, {"type": "Feature", "properties": {"nombre": "La Aguililla", "depto": "CAQUETA", "provincia": "CAQUET\u00c1", "cod_dane": "185922006", "municipio": "Puerto Rico", "tipo": "VEREDA"}, "geometry": {"type": "Point", "coordinates": [-75.0619394681602, 1.99225581120494]}}, {"type": "Feature", "properties": {"nombre": "La Esmeralda", "depto": "CAQUETA", "provincia": "CAQUET\u00c1", "cod_dane": "185922005", "municipio": "Puerto Rico", "tipo": "VEREDA"}, "geometry": {"type": "Point", "coordinates": [-75.2216051794963, 1.83155026537141]}}, {"type": "Feature", "properties": {"nombre": "La Esperanza", "depto": "CAQUETA", "provincia": "CAQUET\u00c1", "cod_dane": "180012006", "municipio": "Florencia", "tipo": "VEREDA"}, "geometry": {"type": "Point", "coordinates": [-75.5032148733383, 1.80809788845145]}}, {"type": "Feature", "properties": {"nombre": "La Monta\u00f1ita", "depto": "CAQUETA", "provincia": "CAQUET\u00c1", "cod_dane": "184101000", "municipio": "La Monta\u00f1ita", "tipo": "CABECERA"}, "geometry": {"type": "Point", "coordinates": [-75.4394565222032, 1.49116254795838]}}, {"type": "Feature", "properties": {"nombre": "La Rastra", "depto": "CAQUETA", "provincia": "CAQUET\u00c1", "cod_dane": "184602004", "municipio": "Mil\u00e1n", "tipo": "VEREDA"}, "geometry": {"type": "Point", "coordinates": [-75.5061535381094, 1.1691440855418]}}, {"type": "Feature", "properties": {"nombre": "La Union Peneya", "depto": "CAQUETA", "provincia": "CAQUET\u00c1", "cod_dane": "184102002", "municipio": "La Monta\u00f1ita", "tipo": "VEREDA"}, "geometry": {"type": "Point", "coordinates": [-75.2051466736134, 1.28626103955455]}}, {"type": "Feature", "properties": {"nombre": "Los Aletones", "depto": "CAQUETA", "provincia": "CAQUET\u00c1", "cod_dane": "180942008", "municipio": "Bel\u00e9n De Los Andaqu\u00edes", "tipo": "VEREDA"}, "geometry": {"type": "Point", "coordinates": [-75.871248934382, 1.49233076619649]}}, {"type": "Feature", "properties": {"nombre": "Los Cristales", "depto": "CAQUETA", "provincia": "CAQUET\u00c1", "cod_dane": "181502008", "municipio": "Cartagena Del Chair\u00e1", "tipo": "VEREDA"}, "geometry": {"type": "Point", "coordinates": [-74.7501100673527, 0.924757938546236]}}, {"type": "Feature", "properties": {"nombre": "Lusitania", "depto": "CAQUETA", "provincia": "CAQUET\u00c1", "cod_dane": "185922003", "municipio": "Puerto Rico", "tipo": "VEREDA"}, "geometry": {"type": "Point", "coordinates": [-75.0394795792198, 1.94392678981616]}}, {"type": "Feature", "properties": {"nombre": "Maguare", "depto": "CAQUETA", "provincia": "CAQUET\u00c1", "cod_dane": "182472001", "municipio": "El Doncello", "tipo": "VEREDA"}, "geometry": {"type": "Point", "coordinates": [-75.1620998596349, 1.64414564645799]}}, {"type": "Feature", "properties": {"nombre": "Mateguadua", "depto": "CAQUETA", "provincia": "CAQUET\u00c1", "cod_dane": "184102006", "municipio": "La Monta\u00f1ita", "tipo": "VEREDA"}, "geometry": {"type": "Point", "coordinates": [-75.3274018011213, 1.22591598753545]}}, {"type": "Feature", "properties": {"nombre": "Maticuru-Granario", "depto": "CAQUETA", "provincia": "CAQUET\u00c1", "cod_dane": "184602003", "municipio": "Mil\u00e1n", "tipo": "VEREDA"}, "geometry": {"type": "Point", "coordinates": [-75.2951795769906, 0.993850838813943]}}, {"type": "Feature", "properties": {"nombre": "Mil\u00e1n", "depto": "CAQUETA", "provincia": "CAQUET\u00c1", "cod_dane": "184601000", "municipio": "Mil\u00e1n", "tipo": "CABECERA"}, "geometry": {"type": "Point", "coordinates": [-75.5108402019658, 1.2934809225722]}}, {"type": "Feature", "properties": {"nombre": "Mononguete", "depto": "CAQUETA", "provincia": "CAQUET\u00c1", "cod_dane": "187562007", "municipio": "Solano", "tipo": "VEREDA"}, "geometry": {"type": "Point", "coordinates": [-72.476526216035, 0.780545611030274]}}, {"type": "Feature", "properties": {"nombre": "Monserrate", "depto": "CAQUETA", "provincia": "CAQUET\u00c1", "cod_dane": "181502003", "municipio": "Cartagena Del Chair\u00e1", "tipo": "VEREDA"}, "geometry": {"type": "Point", "coordinates": [-74.4050505642305, 0.592991932435599]}}, {"type": "Feature", "properties": {"nombre": "Morelia", "depto": "CAQUETA", "provincia": "CAQUET\u00c1", "cod_dane": "184791000", "municipio": "Morelia", "tipo": "CABECERA"}, "geometry": {"type": "Point", "coordinates": [-75.7277232173173, 1.48939212118713]}}, {"type": "Feature", "properties": {"nombre": "Norcacia", "depto": "CAQUETA", "provincia": "CAQUET\u00c1", "cod_dane": "180012007", "municipio": "Florencia", "tipo": "VEREDA"}, "geometry": {"type": "Point", "coordinates": [-75.4452561118778, 1.7491376110363]}}, {"type": "Feature", "properties": {"nombre": "Pena Roja", "depto": "CAQUETA", "provincia": "CAQUET\u00c1", "cod_dane": "187562009", "municipio": "Solano", "tipo": "VEREDA"}, "geometry": {"type": "Point", "coordinates": [-75.2141977689399, 0.952163270500271]}}, {"type": "Feature", "properties": {"nombre": "Penas Coloradas", "depto": "CAQUETA", "provincia": "CAQUET\u00c1", "cod_dane": "181502004", "municipio": "Cartagena Del Chair\u00e1", "tipo": "VEREDA"}, "geometry": {"type": "Point", "coordinates": [-74.6620739644563, 0.875579925928745]}}, {"type": "Feature", "properties": {"nombre": "Playa Rica", "depto": "CAQUETA", "provincia": "CAQUET\u00c1", "cod_dane": "188602005", "municipio": "Valpara\u00edso", "tipo": "VEREDA"}, "geometry": {"type": "Point", "coordinates": [-75.6007383520508, 1.07304960187062]}}, {"type": "Feature", "properties": {"nombre": "Puerto Camelia", "depto": "CAQUETA", "provincia": "CAQUET\u00c1", "cod_dane": "181502006", "municipio": "Cartagena Del Chair\u00e1", "tipo": "VEREDA"}, "geometry": {"type": "Point", "coordinates": [-74.5265170549124, 0.63359007272002]}}, {"type": "Feature", "properties": {"nombre": "Puerto Manrique", "depto": "CAQUETA", "provincia": "CAQUET\u00c1", "cod_dane": "182472002", "municipio": "El Doncello", "tipo": "VEREDA"}, "geometry": {"type": "Point", "coordinates": [-75.1241338687179, 1.71622716835331]}}, {"type": "Feature", "properties": {"nombre": "Puerto Rico", "depto": "CAQUETA", "provincia": "CAQUET\u00c1", "cod_dane": "185921000", "municipio": "Puerto Rico", "tipo": "CABECERA"}, "geometry": {"type": "Point", "coordinates": [-75.1597388115506, 1.91385225252145]}}, {"type": "Feature", "properties": {"nombre": "Puerto Tejada", "depto": "CAQUETA", "provincia": "CAQUET\u00c1", "cod_dane": "187562008", "municipio": "Solano", "tipo": "VEREDA"}, "geometry": {"type": "Point", "coordinates": [-75.0687276271956, 0.993861331713039]}}, {"type": "Feature", "properties": {"nombre": "Puerto Torres", "depto": "CAQUETA", "provincia": "CAQUET\u00c1", "cod_dane": "180942003", "municipio": "Bel\u00e9n De Los Andaqu\u00edes", "tipo": "VEREDA"}, "geometry": {"type": "Point", "coordinates": [-75.8034727114416, 1.24627634945028]}}, {"type": "Feature", "properties": {"nombre": "Remolino Bajo Orteguaza", "depto": "CAQUETA", "provincia": "CAQUET\u00c1", "cod_dane": "184602005", "municipio": "Mil\u00e1n", "tipo": "VEREDA"}, "geometry": {"type": "Point", "coordinates": [-75.3598062738754, 1.01608334757382]}}, {"type": "Feature", "properties": {"nombre": "Remolino Del  Caguan", "depto": "CAQUETA", "provincia": "CAQUET\u00c1", "cod_dane": "181502001", "municipio": "Cartagena Del Chair\u00e1", "tipo": "VEREDA"}, "geometry": {"type": "Point", "coordinates": [-74.4114701995257, 0.598690494552714]}}, {"type": "Feature", "properties": {"nombre": "Rionegro", "depto": "CAQUETA", "provincia": "CAQUET\u00c1", "cod_dane": "182472005", "municipio": "El Doncello", "tipo": "VEREDA"}, "geometry": {"type": "Point", "coordinates": [-74.9998218198438, 1.61504105516319]}}, {"type": "Feature", "properties": {"nombre": "Risaralda", "depto": "CAQUETA", "provincia": "CAQUET\u00c1", "cod_dane": "181502009", "municipio": "Cartagena Del Chair\u00e1", "tipo": "VEREDA"}, "geometry": {"type": "Point", "coordinates": [-74.9691719901036, 1.37708880600082]}}, {"type": "Feature", "properties": {"nombre": "Sabaleta", "depto": "CAQUETA", "provincia": "CAQUET\u00c1", "cod_dane": "186102003", "municipio": "San Jos\u00e9 Del Fragua", "tipo": "VEREDA"}, "geometry": {"type": "Point", "coordinates": [-76.1788274240021, 1.13744216505887]}}, {"type": "Feature", "properties": {"nombre": "Salamina", "depto": "CAQUETA", "provincia": "CAQUET\u00c1", "cod_dane": "182052001", "municipio": "Curillo", "tipo": "VEREDA"}, "geometry": {"type": "Point", "coordinates": [-76.0196157382767, 1.12109824833838]}}, {"type": "Feature", "properties": {"nombre": "San Antonio De Atenas", "depto": "CAQUETA", "provincia": "CAQUET\u00c1", "cod_dane": "180012004", "municipio": "Florencia", "tipo": "VEREDA"}, "geometry": {"type": "Point", "coordinates": [-75.5513453932528, 1.66049685590392]}}, {"type": "Feature", "properties": {"nombre": "San Antonio De Getucha", "depto": "CAQUETA", "provincia": "CAQUET\u00c1", "cod_dane": "184602001", "municipio": "Mil\u00e1n", "tipo": "VEREDA"}, "geometry": {"type": "Point", "coordinates": [-75.4042713372957, 1.10377953424823]}}, {"type": "Feature", "properties": {"nombre": "San Isidro", "depto": "CAQUETA", "provincia": "CAQUET\u00c1", "cod_dane": "184102007", "municipio": "La Monta\u00f1ita", "tipo": "VEREDA"}, "geometry": {"type": "Point", "coordinates": [-75.1072529420246, 1.20556595657582]}}, {"type": "Feature", "properties": {"nombre": "San Jos\u00e9 Del Fragua", "depto": "CAQUETA", "provincia": "CAQUET\u00c1", "cod_dane": "186101000", "municipio": "San Jos\u00e9 Del Fragua", "tipo": "CABECERA"}, "geometry": {"type": "Point", "coordinates": [-75.9769498892371, 1.33457016236377]}}, {"type": "Feature", "properties": {"nombre": "San Vicente Del Cagu\u00e1n", "depto": "CAQUETA", "provincia": "CAQUET\u00c1", "cod_dane": "187531000", "municipio": "San Vicente Del Cagu\u00e1n", "tipo": "CABECERA"}, "geometry": {"type": "Point", "coordinates": [-74.775292373695, 2.11622128842241]}}, {"type": "Feature", "properties": {"nombre": "Santa Fe Del Caguan", "depto": "CAQUETA", "provincia": "CAQUET\u00c1", "cod_dane": "181502002", "municipio": "Cartagena Del Chair\u00e1", "tipo": "VEREDA"}, "geometry": {"type": "Point", "coordinates": [-74.7139167212695, 1.00701898813709]}}, {"type": "Feature", "properties": {"nombre": "Santa Rosa", "depto": "CAQUETA", "provincia": "CAQUET\u00c1", "cod_dane": "187532012", "municipio": "San Vicente Del Cagu\u00e1n", "tipo": "VEREDA"}, "geometry": {"type": "Point", "coordinates": [-74.7866668865813, 1.73685842939697]}}, {"type": "Feature", "properties": {"nombre": "Santana Las  Hermosas", "depto": "CAQUETA", "provincia": "CAQUET\u00c1", "cod_dane": "180012005", "municipio": "Florencia", "tipo": "VEREDA"}, "geometry": {"type": "Point", "coordinates": [-75.5478858582352, 1.72938049959387]}}, {"type": "Feature", "properties": {"nombre": "Santiago De La Selva", "depto": "CAQUETA", "provincia": "CAQUET\u00c1", "cod_dane": "188602001", "municipio": "Valpara\u00edso", "tipo": "VEREDA"}, "geometry": {"type": "Point", "coordinates": [-75.7714345429217, 1.0637156967668]}}, {"type": "Feature", "properties": {"nombre": "Santo Domingo", "depto": "CAQUETA", "provincia": "CAQUET\u00c1", "cod_dane": "181502007", "municipio": "Cartagena Del Chair\u00e1", "tipo": "VEREDA"}, "geometry": {"type": "Point", "coordinates": [-74.1159273963941, 0.370574147618019]}}, {"type": "Feature", "properties": {"nombre": "Santuario", "depto": "CAQUETA", "provincia": "CAQUET\u00c1", "cod_dane": "184102001", "municipio": "La Monta\u00f1ita", "tipo": "VEREDA"}, "geometry": {"type": "Point", "coordinates": [-75.4718889975872, 1.51247787646365]}}, {"type": "Feature", "properties": {"nombre": "Solano", "depto": "CAQUETA", "provincia": "CAQUET\u00c1", "cod_dane": "187561000", "municipio": "Solano", "tipo": "CABECERA"}, "geometry": {"type": "Point", "coordinates": [-75.2566751933441, 0.702004042739186]}}, {"type": "Feature", "properties": {"nombre": "Solita", "depto": "CAQUETA", "provincia": "CAQUET\u00c1", "cod_dane": "187851000", "municipio": "Solita", "tipo": "CABECERA"}, "geometry": {"type": "Point", "coordinates": [-75.6234428782198, 0.875245243562765]}}, {"type": "Feature", "properties": {"nombre": "Tres Esquinas", "depto": "CAQUETA", "provincia": "CAQUET\u00c1", "cod_dane": "187532007", "municipio": "San Vicente Del Cagu\u00e1n", "tipo": "VEREDA"}, "geometry": {"type": "Point", "coordinates": [-74.814778358263, 1.87064442533852]}}, {"type": "Feature", "properties": {"nombre": "Troncales", "depto": "CAQUETA", "provincia": "CAQUET\u00c1", "cod_dane": "187532013", "municipio": "San Vicente Del Cagu\u00e1n", "tipo": "VEREDA"}, "geometry": {"type": "Point", "coordinates": [-74.9330695728477, 2.12768164518819]}}, {"type": "Feature", "properties": {"nombre": "Valpara\u00edso", "depto": "CAQUETA", "provincia": "CAQUET\u00c1", "cod_dane": "188601000", "municipio": "Valpara\u00edso", "tipo": "CABECERA"}, "geometry": {"type": "Point", "coordinates": [-75.7093157156853, 1.19899308920741]}}, {"type": "Feature", "properties": {"nombre": "Versalles", "depto": "CAQUETA", "provincia": "CAQUET\u00c1", "cod_dane": "182562001", "municipio": "El Paujil", "tipo": "VEREDA"}, "geometry": {"type": "Point", "coordinates": [-75.0469198720283, 1.45240272185908]}}, {"type": "Feature", "properties": {"nombre": "Versalles", "depto": "CAQUETA", "provincia": "CAQUET\u00c1", "cod_dane": "180292004", "municipio": "Albania", "tipo": "VEREDA"}, "geometry": {"type": "Point", "coordinates": [-75.9366048419966, 1.20241266475448]}}, {"type": "Feature", "properties": {"nombre": "Yurayaco", "depto": "CAQUETA", "provincia": "CAQUET\u00c1", "cod_dane": "186102002", "municipio": "San Jos\u00e9 Del Fragua", "tipo": "VEREDA"}, "geometry": {"type": "Point", "coordinates": [-76.0961340111389, 1.22909291479257]}}]}