{"type": "FeatureCollection", "name": "centros_poblados_HUILA", "crs": {"type": "name", "properties": {"name": "urn:ogc:def:crs:OGC:1.3:CRS84"}}, "features": [{"type": "Feature", "properties": {"nombre": "Acevedo", "depto": "HUILA", "cod_dane": "410061000", "municipio": "Acevedo", "tipo": "CABECERA"}, "geometry": {"type": "Point", "coordinates": [-75.8917195372948, 1.80836458265827]}}, {"type": "Feature", "properties": {"nombre": "Agrado", "depto": "HUILA", "cod_dane": "410131000", "municipio": "Agrado", "tipo": "CABECERA"}, "geometry": {"type": "Point", "coordinates": [-75.7755623014915, 2.26286208046]}}, {"type": "Feature", "properties": {"nombre": "Aipe", "depto": "HUILA", "cod_dane": "410161000", "municipio": "Aipe", "tipo": "CABECERA"}, "geometry": {"type": "Point", "coordinates": [-75.2433297556805, 3.22520990921326]}}, {"type": "Feature", "properties": {"nombre": "Algeciras", "depto": "HUILA", "cod_dane": "410201000", "municipio": "Algeciras", "tipo": "CABECERA"}, "geometry": {"type": "Point", "coordinates": [-75.3190545712896, 2.52543893181355]}}, {"type": "Feature", "properties": {"nombre": "Altamira", "depto": "HUILA", "cod_dane": "410261000", "municipio": "Altamira", "tipo": "CABECERA"}, "geometry": {"type": "Point", "coordinates": [-75.7913951901861, 2.06679148204732]}}, {"type": "Feature", "properties": {"nombre": "Amborco", "depto": "HUILA", "cod_dane": "415242009", "municipio": "Palermo", "tipo": "VEREDA"}, "geometry": {"type": "Point", "coordinates": [-75.3137968439803, 2.95189545244681]}}, {"type": "Feature", "properties": {"nombre": "Anacleto Garcia", "depto": "HUILA", "cod_dane": "417992001", "municipio": "Tello", "tipo": "VEREDA"}, "geometry": {"type": "Point", "coordinates": [-75.0451585315189, 2.95258515306421]}}, {"type": "Feature", "properties": {"nombre": "Baraya", "depto": "HUILA", "cod_dane": "410781000", "municipio": "Baraya", "tipo": "CABECERA"}, "geometry": {"type": "Point", "coordinates": [-75.0577140815307, 3.15549419122325]}}, {"type": "Feature", "properties": {"nombre": "Belen", "depto": "HUILA", "cod_dane": "413962001", "municipio": "La Plata", "tipo": "VEREDA"}, "geometry": {"type": "Point", "coordinates": [-76.0517035707745, 2.20437559774936]}}, {"type": "Feature", "properties": {"nombre": "Betania", "depto": "HUILA", "cod_dane": "415242001", "municipio": "Palermo", "tipo": "VEREDA"}, "geometry": {"type": "Point", "coordinates": [-75.402760444289, 2.75296215567334]}}, {"type": "Feature", "properties": {"nombre": "Bruselas", "depto": "HUILA", "cod_dane": "415512001", "municipio": "Pitalito", "tipo": "VEREDA"}, "geometry": {"type": "Point", "coordinates": [-76.1784407602179, 1.77965770093144]}}, {"type": "Feature", "properties": {"nombre": "Caguan", "depto": "HUILA", "cod_dane": "410012001", "municipio": "Neiva", "tipo": "VEREDA"}, "geometry": {"type": "Point", "coordinates": [-75.2372726797758, 2.8665362073308]}}, {"type": "Feature", "properties": {"nombre": "Campoalegre", "depto": "HUILA", "cod_dane": "411321000", "municipio": "Campoalegre", "tipo": "CABECERA"}, "geometry": {"type": "Point", "coordinates": [-75.3296859040294, 2.68796130855328]}}, {"type": "Feature", "properties": {"nombre": "Chapinero", "depto": "HUILA", "cod_dane": "410012002", "municipio": "Neiva", "tipo": "VEREDA"}, "geometry": {"type": "Point", "coordinates": [-75.5167786266313, 3.19049389634872]}}, {"type": "Feature", "properties": {"nombre": "Colombia", "depto": "HUILA", "cod_dane": "412061000", "municipio": "Colombia", "tipo": "CABECERA"}, "geometry": {"type": "Point", "coordinates": [-74.8060495352485, 3.37955123871666]}}, {"type": "Feature", "properties": {"nombre": "El Colegio", "depto": "HUILA", "cod_dane": "410012016", "municipio": "Neiva", "tipo": "VEREDA"}, "geometry": {"type": "Point", "coordinates": [-75.0080858714111, 2.90115398165184]}}, {"type": "Feature", "properties": {"nombre": "El Jardin", "depto": "HUILA", "cod_dane": "413062012", "municipio": "Gigante", "tipo": "VEREDA"}, "geometry": {"type": "Point", "coordinates": [-75.5098138576533, 2.31684863282198]}}, {"type": "Feature", "properties": {"nombre": "El Juncal", "depto": "HUILA", "cod_dane": "415242006", "municipio": "Palermo", "tipo": "VEREDA"}, "geometry": {"type": "Point", "coordinates": [-75.3287753928776, 2.8288365929454]}}, {"type": "Feature", "properties": {"nombre": "El Meson", "depto": "HUILA", "cod_dane": "413062006", "municipio": "Gigante", "tipo": "VEREDA"}, "geometry": {"type": "Point", "coordinates": [-75.4802695510759, 2.47994020193931]}}, {"type": "Feature", "properties": {"nombre": "El Palmar", "depto": "HUILA", "cod_dane": "416682006", "municipio": "San Agustin", "tipo": "VEREDA"}, "geometry": {"type": "Point", "coordinates": [-76.2970666552122, 1.9603592907398]}}, {"type": "Feature", "properties": {"nombre": "El Paraiso Viejo", "depto": "HUILA", "cod_dane": "410202001", "municipio": "Algeciras", "tipo": "VEREDA"}, "geometry": {"type": "Point", "coordinates": [-75.2125222392889, 2.61487447392448]}}, {"type": "Feature", "properties": {"nombre": "El Pensil", "depto": "HUILA", "cod_dane": "413782002", "municipio": "La Argentina", "tipo": "VEREDA"}, "geometry": {"type": "Point", "coordinates": [-76.0611377898243, 2.18198192060935]}}, {"type": "Feature", "properties": {"nombre": "El Socorro", "depto": "HUILA", "cod_dane": "415482001", "municipio": "Pital", "tipo": "VEREDA"}, "geometry": {"type": "Point", "coordinates": [-75.838164970099, 2.31657364002026]}}, {"type": "Feature", "properties": {"nombre": "El Toro", "depto": "HUILA", "cod_dane": "410202003", "municipio": "Algeciras", "tipo": "VEREDA"}, "geometry": {"type": "Point", "coordinates": [-75.4086984985219, 2.42261769748056]}}, {"type": "Feature", "properties": {"nombre": "El Vergel", "depto": "HUILA", "cod_dane": "417912001", "municipio": "Tarqui", "tipo": "VEREDA"}, "geometry": {"type": "Point", "coordinates": [-75.9087744278403, 2.07529601115893]}}, {"type": "Feature", "properties": {"nombre": "El Viso", "depto": "HUILA", "cod_dane": "412442001", "municipio": "Elias", "tipo": "VEREDA"}, "geometry": {"type": "Point", "coordinates": [-75.9101683812796, 2.02001388229771]}}, {"type": "Feature", "properties": {"nombre": "Elias", "depto": "HUILA", "cod_dane": "412441000", "municipio": "Elias", "tipo": "CABECERA"}, "geometry": {"type": "Point", "coordinates": [-75.9406483738631, 2.01611639340418]}}, {"type": "Feature", "properties": {"nombre": "Escalereta", "depto": "HUILA", "cod_dane": "410132002", "municipio": "Agrado", "tipo": "VEREDA"}, "geometry": {"type": "Point", "coordinates": [-75.6644979249119, 2.22264501298515]}}, {"type": "Feature", "properties": {"nombre": "Fortalecillas", "depto": "HUILA", "cod_dane": "410012003", "municipio": "Neiva", "tipo": "VEREDA"}, "geometry": {"type": "Point", "coordinates": [-75.2544741631031, 3.03957863009009]}}, {"type": "Feature", "properties": {"nombre": "Gallardo", "depto": "HUILA", "cod_dane": "417702001", "municipio": "Suaza", "tipo": "VEREDA"}, "geometry": {"type": "Point", "coordinates": [-75.8811925098306, 1.8788268398193]}}, {"type": "Feature", "properties": {"nombre": "Gallego", "depto": "HUILA", "cod_dane": "413962009", "municipio": "La Plata", "tipo": "VEREDA"}, "geometry": {"type": "Point", "coordinates": [-75.9730818489164, 2.26617895839665]}}, {"type": "Feature", "properties": {"nombre": "Garzon", "depto": "HUILA", "cod_dane": "412981000", "municipio": "Garzon", "tipo": "CABECERA"}, "geometry": {"type": "Point", "coordinates": [-75.6318081840118, 2.19958441326067]}}, {"type": "Feature", "properties": {"nombre": "Gigante", "depto": "HUILA", "cod_dane": "413061000", "municipio": "Gigante", "tipo": "CABECERA"}, "geometry": {"type": "Point", "coordinates": [-75.5493736450665, 2.38890382188961]}}, {"type": "Feature", "properties": {"nombre": "Guacamayo", "depto": "HUILA", "cod_dane": "415512002", "municipio": "Pitalito", "tipo": "VEREDA"}, "geometry": {"type": "Point", "coordinates": [-76.0310237348207, 1.95338725228093]}}, {"type": "Feature", "properties": {"nombre": "Guacirco", "depto": "HUILA", "cod_dane": "410012004", "municipio": "Neiva", "tipo": "VEREDA"}, "geometry": {"type": "Point", "coordinates": [-75.2795083917379, 3.10468832457045]}}, {"type": "Feature", "properties": {"nombre": "Guadalupe", "depto": "HUILA", "cod_dane": "413191000", "municipio": "Guadalupe", "tipo": "CABECERA"}, "geometry": {"type": "Point", "coordinates": [-75.7610620413848, 2.02783859143067]}}, {"type": "Feature", "properties": {"nombre": "Guayabal", "depto": "HUILA", "cod_dane": "417702002", "municipio": "Suaza", "tipo": "VEREDA"}, "geometry": {"type": "Point", "coordinates": [-75.8063379202099, 1.91143161753087]}}, {"type": "Feature", "properties": {"nombre": "Hato Nuevo", "depto": "HUILA", "cod_dane": "418722003", "municipio": "Villavieja", "tipo": "VEREDA"}, "geometry": {"type": "Point", "coordinates": [-75.2650883818217, 3.14554357019058]}}, {"type": "Feature", "properties": {"nombre": "Hobo", "depto": "HUILA", "cod_dane": "413491000", "municipio": "Hobo", "tipo": "CABECERA"}, "geometry": {"type": "Point", "coordinates": [-75.4535371542455, 2.58520832381475]}}, {"type": "Feature", "properties": {"nombre": "Iquira", "depto": "HUILA", "cod_dane": "413571000", "municipio": "Iquira", "tipo": "CABECERA"}, "geometry": {"type": "Point", "coordinates": [-75.6385607269127, 2.65278520123105]}}, {"type": "Feature", "properties": {"nombre": "La Arcadia", "depto": "HUILA", "cod_dane": "410202002", "municipio": "Algeciras", "tipo": "VEREDA"}, "geometry": {"type": "Point", "coordinates": [-75.4001530341077, 2.44658134286064]}}, {"type": "Feature", "properties": {"nombre": "La Argentina", "depto": "HUILA", "cod_dane": "413781000", "municipio": "La Argentina", "tipo": "CABECERA"}, "geometry": {"type": "Point", "coordinates": [-75.9824550561144, 2.20143261001936]}}, {"type": "Feature", "properties": {"nombre": "La Cabana", "depto": "HUILA", "cod_dane": "416602001", "municipio": "Saladoblanco", "tipo": "VEREDA"}, "geometry": {"type": "Point", "coordinates": [-76.135399231184, 2.00170735800256]}}, {"type": "Feature", "properties": {"nombre": "La Canada", "depto": "HUILA", "cod_dane": "410132001", "municipio": "Agrado", "tipo": "VEREDA"}, "geometry": {"type": "Point", "coordinates": [-75.6754531954514, 2.18554296654228]}}, {"type": "Feature", "properties": {"nombre": "La Gran Via", "depto": "HUILA", "cod_dane": "413062002", "municipio": "Gigante", "tipo": "VEREDA"}, "geometry": {"type": "Point", "coordinates": [-75.4876974613569, 2.3810657504473]}}, {"type": "Feature", "properties": {"nombre": "La Gran Via El Porvenir", "depto": "HUILA", "cod_dane": "413062013", "municipio": "Gigante", "tipo": "VEREDA"}, "geometry": {"type": "Point", "coordinates": [-75.4853944882167, 2.37498987663775]}}, {"type": "Feature", "properties": {"nombre": "La Jagua", "depto": "HUILA", "cod_dane": "412982002", "municipio": "Garzon", "tipo": "VEREDA"}, "geometry": {"type": "Point", "coordinates": [-75.682561163704, 2.170841635932]}}, {"type": "Feature", "properties": {"nombre": "La Laguna", "depto": "HUILA", "cod_dane": "415512003", "municipio": "Pitalito", "tipo": "VEREDA"}, "geometry": {"type": "Point", "coordinates": [-76.0873003399404, 1.96436457596456]}}, {"type": "Feature", "properties": {"nombre": "La Plata", "depto": "HUILA", "cod_dane": "413961000", "municipio": "La Plata", "tipo": "CABECERA"}, "geometry": {"type": "Point", "coordinates": [-75.8941415897962, 2.39207831110133]}}, {"type": "Feature", "properties": {"nombre": "La Primavera", "depto": "HUILA", "cod_dane": "416152005", "municipio": "Rivera", "tipo": "VEREDA"}, "geometry": {"type": "Point", "coordinates": [-75.237506403011, 2.81618427770318]}}, {"type": "Feature", "properties": {"nombre": "La Victoria", "depto": "HUILA", "cod_dane": "418722005", "municipio": "Villavieja", "tipo": "VEREDA"}, "geometry": {"type": "Point", "coordinates": [-75.1755234301509, 3.3539897030908]}}, {"type": "Feature", "properties": {"nombre": "Maito", "depto": "HUILA", "cod_dane": "417912002", "municipio": "Tarqui", "tipo": "VEREDA"}, "geometry": {"type": "Point", "coordinates": [-75.9117622125849, 2.05012957514471]}}, {"type": "Feature", "properties": {"nombre": "Miraflores", "depto": "HUILA", "cod_dane": "413192002", "municipio": "Guadalupe", "tipo": "VEREDA"}, "geometry": {"type": "Point", "coordinates": [-75.6763690745527, 2.05219071450396]}}, {"type": "Feature", "properties": {"nombre": "Monserrate", "depto": "HUILA", "cod_dane": "413962002", "municipio": "La Plata", "tipo": "VEREDA"}, "geometry": {"type": "Point", "coordinates": [-75.994522372871, 2.47366916775271]}}, {"type": "Feature", "properties": {"nombre": "Morelia", "depto": "HUILA", "cod_dane": "416602007", "municipio": "Saladoblanco", "tipo": "VEREDA"}, "geometry": {"type": "Point", "coordinates": [-76.1897585357096, 2.06949729187341]}}, {"type": "Feature", "properties": {"nombre": "Moscopan", "depto": "HUILA", "cod_dane": "413962003", "municipio": "La Plata", "tipo": "VEREDA"}, "geometry": {"type": "Point", "coordinates": [-76.1860131605406, 2.18353236139031]}}, {"type": "Feature", "properties": {"nombre": "Naranjal", "depto": "HUILA", "cod_dane": "418072001", "municipio": "Timana", "tipo": "VEREDA"}, "geometry": {"type": "Point", "coordinates": [-75.8547119119297, 2.01929097647792]}}, {"type": "Feature", "properties": {"nombre": "Nataga", "depto": "HUILA", "cod_dane": "414831000", "municipio": "Nataga", "tipo": "CABECERA"}, "geometry": {"type": "Point", "coordinates": [-75.8125140032012, 2.5487238080854]}}, {"type": "Feature", "properties": {"nombre": "Neiva", "depto": "HUILA", "cod_dane": "410011000", "municipio": "Neiva", "tipo": "CABECERA"}, "geometry": {"type": "Point", "coordinates": [-75.2811460896044, 2.93832123981769]}}, {"type": "Feature", "properties": {"nombre": "Obando", "depto": "HUILA", "cod_dane": "416682002", "municipio": "San Agustin", "tipo": "VEREDA"}, "geometry": {"type": "Point", "coordinates": [-76.3016310813057, 1.94284783139399]}}, {"type": "Feature", "properties": {"nombre": "Oporapa", "depto": "HUILA", "cod_dane": "415031000", "municipio": "Oporapa", "tipo": "CABECERA"}, "geometry": {"type": "Point", "coordinates": [-75.998520983377, 2.02838869483142]}}, {"type": "Feature", "properties": {"nombre": "Ospina Perez", "depto": "HUILA", "cod_dane": "415242004", "municipio": "Palermo", "tipo": "VEREDA"}, "geometry": {"type": "Point", "coordinates": [-75.5513464729229, 2.8810440209898]}}, {"type": "Feature", "properties": {"nombre": "Otas", "depto": "HUILA", "cod_dane": "411322002", "municipio": "Campoalegre", "tipo": "VEREDA"}, "geometry": {"type": "Point", "coordinates": [-75.338071795551, 2.60664058756391]}}, {"type": "Feature", "properties": {"nombre": "Pacarni", "depto": "HUILA", "cod_dane": "417972001", "municipio": "Tesalia", "tipo": "VEREDA"}, "geometry": {"type": "Point", "coordinates": [-75.7018983545508, 2.61072460921515]}}, {"type": "Feature", "properties": {"nombre": "Paicol", "depto": "HUILA", "cod_dane": "415181000", "municipio": "Paicol", "tipo": "CABECERA"}, "geometry": {"type": "Point", "coordinates": [-75.7766411672231, 2.45205462116137]}}, {"type": "Feature", "properties": {"nombre": "Palacio", "depto": "HUILA", "cod_dane": "410012007", "municipio": "Neiva", "tipo": "VEREDA"}, "geometry": {"type": "Point", "coordinates": [-75.0671628325565, 2.94250162677086]}}, {"type": "Feature", "properties": {"nombre": "Palermo", "depto": "HUILA", "cod_dane": "415241000", "municipio": "Palermo", "tipo": "CABECERA"}, "geometry": {"type": "Point", "coordinates": [-75.4372051318128, 2.88925055825206]}}, {"type": "Feature", "properties": {"nombre": "Palestina", "depto": "HUILA", "cod_dane": "415301000", "municipio": "Palestina", "tipo": "CABECERA"}, "geometry": {"type": "Point", "coordinates": [-76.1362917084637, 1.72634341347356]}}, {"type": "Feature", "properties": {"nombre": "Paraiso Nuevo", "depto": "HUILA", "cod_dane": "410202006", "municipio": "Algeciras", "tipo": "VEREDA"}, "geometry": {"type": "Point", "coordinates": [-75.2191364533967, 2.60888656215207]}}, {"type": "Feature", "properties": {"nombre": "Pata", "depto": "HUILA", "cod_dane": "410162003", "municipio": "Aipe", "tipo": "VEREDA"}, "geometry": {"type": "Point", "coordinates": [-75.1986803248437, 3.37592005737573]}}, {"type": "Feature", "properties": {"nombre": "Pital", "depto": "HUILA", "cod_dane": "415481000", "municipio": "Pital", "tipo": "CABECERA"}, "geometry": {"type": "Point", "coordinates": [-75.8081776566311, 2.26963283431461]}}, {"type": "Feature", "properties": {"nombre": "Pitalito", "depto": "HUILA", "cod_dane": "415511000", "municipio": "Pitalito", "tipo": "CABECERA"}, "geometry": {"type": "Point", "coordinates": [-76.0288123271106, 1.86008944434838]}}, {"type": "Feature", "properties": {"nombre": "Plazuela", "depto": "HUILA", "cod_dane": "412982012", "municipio": "Garzon", "tipo": "VEREDA"}, "geometry": {"type": "Point", "coordinates": [-75.6185182470701, 2.24660890593537]}}, {"type": "Feature", "properties": {"nombre": "Polonia", "depto": "HUILA", "cod_dane": "418722004", "municipio": "Villavieja", "tipo": "VEREDA"}, "geometry": {"type": "Point", "coordinates": [-75.2209551231, 3.18818283058815]}}, {"type": "Feature", "properties": {"nombre": "Potosi", "depto": "HUILA", "cod_dane": "418722001", "municipio": "Villavieja", "tipo": "VEREDA"}, "geometry": {"type": "Point", "coordinates": [-75.1735779156561, 3.39044536162405]}}, {"type": "Feature", "properties": {"nombre": "Potrerillos", "depto": "HUILA", "cod_dane": "413062003", "municipio": "Gigante", "tipo": "VEREDA"}, "geometry": {"type": "Point", "coordinates": [-75.5460552986251, 2.46916187630314]}}, {"type": "Feature", "properties": {"nombre": "Pradera", "depto": "HUILA", "cod_dane": "416682007", "municipio": "San Agustin", "tipo": "VEREDA"}, "geometry": {"type": "Point", "coordinates": [-76.3599387379536, 1.91704646875774]}}, {"type": "Feature", "properties": {"nombre": "Praga", "depto": "HUILA", "cod_dane": "410162001", "municipio": "Aipe", "tipo": "VEREDA"}, "geometry": {"type": "Point", "coordinates": [-75.4958339718665, 3.27154917717029]}}, {"type": "Feature", "properties": {"nombre": "Pueblo Nuevo", "depto": "HUILA", "cod_dane": "413062007", "municipio": "Gigante", "tipo": "VEREDA"}, "geometry": {"type": "Point", "coordinates": [-75.5318211079837, 2.40441609024255]}}, {"type": "Feature", "properties": {"nombre": "Puerto Quinchana", "depto": "HUILA", "cod_dane": "416682004", "municipio": "San Agustin", "tipo": "VEREDA"}, "geometry": {"type": "Point", "coordinates": [-76.4276773972892, 1.92223365761203]}}, {"type": "Feature", "properties": {"nombre": "Quituro", "depto": "HUILA", "cod_dane": "417912003", "municipio": "Tarqui", "tipo": "VEREDA"}, "geometry": {"type": "Point", "coordinates": [-75.947363485656, 2.07665449754573]}}, {"type": "Feature", "properties": {"nombre": "Resina", "depto": "HUILA", "cod_dane": "413192001", "municipio": "Guadalupe", "tipo": "VEREDA"}, "geometry": {"type": "Point", "coordinates": [-75.6960664310005, 1.92694194531521]}}, {"type": "Feature", "properties": {"nombre": "Rio Frio", "depto": "HUILA", "cod_dane": "416152006", "municipio": "Rivera", "tipo": "VEREDA"}, "geometry": {"type": "Point", "coordinates": [-75.2979906604604, 2.82440820982591]}}, {"type": "Feature", "properties": {"nombre": "Rio Negro", "depto": "HUILA", "cod_dane": "413572003", "municipio": "Iquira", "tipo": "VEREDA"}, "geometry": {"type": "Point", "coordinates": [-75.753910423884, 2.69292279648012]}}, {"type": "Feature", "properties": {"nombre": "Rioloro", "depto": "HUILA", "cod_dane": "413062004", "municipio": "Gigante", "tipo": "VEREDA"}, "geometry": {"type": "Point", "coordinates": [-75.6132497378234, 2.32520826988827]}}, {"type": "Feature", "properties": {"nombre": "Rivera", "depto": "HUILA", "cod_dane": "416151000", "municipio": "Rivera", "tipo": "CABECERA"}, "geometry": {"type": "Point", "coordinates": [-75.2616354801461, 2.78080573284441]}}, {"type": "Feature", "properties": {"nombre": "Saladoblanco", "depto": "HUILA", "cod_dane": "416601000", "municipio": "Saladoblanco", "tipo": "CABECERA"}, "geometry": {"type": "Point", "coordinates": [-76.0483724177659, 1.99600380341286]}}, {"type": "Feature", "properties": {"nombre": "San Adolfo", "depto": "HUILA", "cod_dane": "410062001", "municipio": "Acevedo", "tipo": "VEREDA"}, "geometry": {"type": "Point", "coordinates": [-76.0287694496482, 1.7149145560226]}}, {"type": "Feature", "properties": {"nombre": "San Agustin", "depto": "HUILA", "cod_dane": "416681000", "municipio": "San Agustin", "tipo": "CABECERA"}, "geometry": {"type": "Point", "coordinates": [-76.273382933771, 1.88280992634166]}}, {"type": "Feature", "properties": {"nombre": "San Alfonso", "depto": "HUILA", "cod_dane": "418722002", "municipio": "Villavieja", "tipo": "VEREDA"}, "geometry": {"type": "Point", "coordinates": [-75.1152732070205, 3.37409385506975]}}, {"type": "Feature", "properties": {"nombre": "San Andres", "depto": "HUILA", "cod_dane": "417992003", "municipio": "Tello", "tipo": "VEREDA"}, "geometry": {"type": "Point", "coordinates": [-75.0202467988258, 3.05037198297934]}}, {"type": "Feature", "properties": {"nombre": "San Andres", "depto": "HUILA", "cod_dane": "413962004", "municipio": "La Plata", "tipo": "VEREDA"}, "geometry": {"type": "Point", "coordinates": [-75.8303439704187, 2.39577698771151]}}, {"type": "Feature", "properties": {"nombre": "San Antonio De Anaconia", "depto": "HUILA", "cod_dane": "410012017", "municipio": "Neiva", "tipo": "VEREDA"}, "geometry": {"type": "Point", "coordinates": [-75.1035636177356, 2.93052976683108]}}, {"type": "Feature", "properties": {"nombre": "San Antonio Del Pescado", "depto": "HUILA", "cod_dane": "412982003", "municipio": "Garzon", "tipo": "VEREDA"}, "geometry": {"type": "Point", "coordinates": [-75.6859286614801, 2.0747143806122]}}, {"type": "Feature", "properties": {"nombre": "San Joaquin", "depto": "HUILA", "cod_dane": "416762001", "municipio": "Santa Maria", "tipo": "VEREDA"}, "geometry": {"type": "Point", "coordinates": [-75.6378468075966, 2.91183706229467]}}, {"type": "Feature", "properties": {"nombre": "San Jose De Isnos", "depto": "HUILA", "cod_dane": "413591000", "municipio": "Isnos", "tipo": "CABECERA"}, "geometry": {"type": "Point", "coordinates": [-76.2190089814812, 1.9330604821395]}}, {"type": "Feature", "properties": {"nombre": "San Juan", "depto": "HUILA", "cod_dane": "415242005", "municipio": "Palermo", "tipo": "VEREDA"}, "geometry": {"type": "Point", "coordinates": [-75.5263951209414, 2.82791271347643]}}, {"type": "Feature", "properties": {"nombre": "San Marcos", "depto": "HUILA", "cod_dane": "412062005", "municipio": "Colombia", "tipo": "VEREDA"}, "geometry": {"type": "Point", "coordinates": [-74.7208034071891, 3.53238182493968]}}, {"type": "Feature", "properties": {"nombre": "San Miguel", "depto": "HUILA", "cod_dane": "410162007", "municipio": "Aipe", "tipo": "VEREDA"}, "geometry": {"type": "Point", "coordinates": [-75.5665324442128, 3.24868640891736]}}, {"type": "Feature", "properties": {"nombre": "San Roque", "depto": "HUILA", "cod_dane": "415032001", "municipio": "Oporapa", "tipo": "VEREDA"}, "geometry": {"type": "Point", "coordinates": [-76.0093483886472, 2.06329634191582]}}, {"type": "Feature", "properties": {"nombre": "San Vicente", "depto": "HUILA", "cod_dane": "413962006", "municipio": "La Plata", "tipo": "VEREDA"}, "geometry": {"type": "Point", "coordinates": [-76.0148560766995, 2.3194581152276]}}, {"type": "Feature", "properties": {"nombre": "Santa Maria", "depto": "HUILA", "cod_dane": "416761000", "municipio": "Santa Maria", "tipo": "CABECERA"}, "geometry": {"type": "Point", "coordinates": [-75.5892792837029, 2.94205697978994]}}, {"type": "Feature", "properties": {"nombre": "Santa Rita", "depto": "HUILA", "cod_dane": "410162002", "municipio": "Aipe", "tipo": "VEREDA"}, "geometry": {"type": "Point", "coordinates": [-75.5718542126097, 3.23287844338495]}}, {"type": "Feature", "properties": {"nombre": "Santana", "depto": "HUILA", "cod_dane": "412062002", "municipio": "Colombia", "tipo": "VEREDA"}, "geometry": {"type": "Point", "coordinates": [-74.7091208988727, 3.59014862592045]}}, {"type": "Feature", "properties": {"nombre": "Sartenjo", "depto": "HUILA", "cod_dane": "412982006", "municipio": "Garzon", "tipo": "VEREDA"}, "geometry": {"type": "Point", "coordinates": [-75.6242584801096, 2.21671217428863]}}, {"type": "Feature", "properties": {"nombre": "Sierra De Gramal", "depto": "HUILA", "cod_dane": "417992002", "municipio": "Tello", "tipo": "VEREDA"}, "geometry": {"type": "Point", "coordinates": [-75.0776730148637, 3.00112878427237]}}, {"type": "Feature", "properties": {"nombre": "Sierra De La Canada", "depto": "HUILA", "cod_dane": "417992004", "municipio": "Tello", "tipo": "VEREDA"}, "geometry": {"type": "Point", "coordinates": [-75.0817507712863, 3.01833129713526]}}, {"type": "Feature", "properties": {"nombre": "Silvania", "depto": "HUILA", "cod_dane": "413062010", "municipio": "Gigante", "tipo": "VEREDA"}, "geometry": {"type": "Point", "coordinates": [-75.5114644602568, 2.30119711440088]}}, {"type": "Feature", "properties": {"nombre": "Suaza", "depto": "HUILA", "cod_dane": "417701000", "municipio": "Suaza", "tipo": "CABECERA"}, "geometry": {"type": "Point", "coordinates": [-75.797659157637, 1.97974963126815]}}, {"type": "Feature", "properties": {"nombre": "Tarqui", "depto": "HUILA", "cod_dane": "417911000", "municipio": "Tarqui", "tipo": "CABECERA"}, "geometry": {"type": "Point", "coordinates": [-75.827075960955, 2.11455103625289]}}, {"type": "Feature", "properties": {"nombre": "Tello", "depto": "HUILA", "cod_dane": "417991000", "municipio": "Tello", "tipo": "CABECERA"}, "geometry": {"type": "Point", "coordinates": [-75.1422689870525, 3.07018437201127]}}, {"type": "Feature", "properties": {"nombre": "Teruel", "depto": "HUILA", "cod_dane": "418011000", "municipio": "Teruel", "tipo": "CABECERA"}, "geometry": {"type": "Point", "coordinates": [-75.5716998737175, 2.74449019149495]}}, {"type": "Feature", "properties": {"nombre": "Tesalia", "depto": "HUILA", "cod_dane": "417971000", "municipio": "Tesalia", "tipo": "CABECERA"}, "geometry": {"type": "Point", "coordinates": [-75.7307118751561, 2.48885014740839]}}, {"type": "Feature", "properties": {"nombre": "Timana", "depto": "HUILA", "cod_dane": "418071000", "municipio": "Timana", "tipo": "CABECERA"}, "geometry": {"type": "Point", "coordinates": [-75.9357969576562, 1.97709152133031]}}, {"type": "Feature", "properties": {"nombre": "Tres Esquinas", "depto": "HUILA", "cod_dane": "413062011", "municipio": "Gigante", "tipo": "VEREDA"}, "geometry": {"type": "Point", "coordinates": [-75.5058079514641, 2.31636909277417]}}, {"type": "Feature", "properties": {"nombre": "Ulloa", "depto": "HUILA", "cod_dane": "416152001", "municipio": "Rivera", "tipo": "VEREDA"}, "geometry": {"type": "Point", "coordinates": [-75.2314839769005, 2.8157510105784]}}, {"type": "Feature", "properties": {"nombre": "Valencia La Paz", "depto": "HUILA", "cod_dane": "413572004", "municipio": "Iquira", "tipo": "VEREDA"}, "geometry": {"type": "Point", "coordinates": [-75.6192439482338, 2.69373364816805]}}, {"type": "Feature", "properties": {"nombre": "Vegalarga", "depto": "HUILA", "cod_dane": "410012012", "municipio": "Neiva", "tipo": "VEREDA"}, "geometry": {"type": "Point", "coordinates": [-75.0443454840183, 2.95017571858237]}}, {"type": "Feature", "properties": {"nombre": "Villa Fatima", "depto": "HUILA", "cod_dane": "416682003", "municipio": "San Agustin", "tipo": "VEREDA"}, "geometry": {"type": "Point", "coordinates": [-76.3963698602577, 1.90239906411797]}}, {"type": "Feature", "properties": {"nombre": "Villa Losada", "depto": "HUILA", "cod_dane": "413962005", "municipio": "La Plata", "tipo": "VEREDA"}, "geometry": {"type": "Point", "coordinates": [-75.971435867862, 2.28421130500708]}}, {"type": "Feature", "properties": {"nombre": "Villavieja", "depto": "HUILA", "cod_dane": "418721000", "municipio": "Villavieja", "tipo": "CABECERA"}, "geometry": {"type": "Point", "coordinates": [-75.2213648774573, 3.22197061093414]}}, {"type": "Feature", "properties": {"nombre": "Yaguara", "depto": "HUILA", "cod_dane": "418851000", "municipio": "Yaguara", "tipo": "CABECERA"}, "geometry": {"type": "Point", "coordinates": [-75.5209833997855, 2.66707866309715]}}, {"type": "Feature", "properties": {"nombre": "Zuluaga", "depto": "HUILA", "cod_dane": "412982004", "municipio": "Garzon", "tipo": "VEREDA"}, "geometry": {"type": "Point", "coordinates": [-75.5300810412908, 2.25451225514249]}}]}