{"type": "FeatureCollection", "name": "centros_poblados_VALLE", "crs": {"type": "name", "properties": {"name": "urn:ogc:def:crs:OGC:1.3:CRS84"}}, "features": [{"type": "Feature", "properties": {"nombre": "Aguaclara", "depto": "VALLE", "provincia": "SUR", "cod_dane": "765202001", "municipio": "Palmira", "tipo": "VEREDA"}, "geometry": {"type": "Point", "coordinates": [-76.2391242968601, 3.50598630145643]}}, {"type": "Feature", "properties": {"nombre": "Alaska", "depto": "VALLE", "provincia": "CENTRO", "cod_dane": "761112022", "municipio": "Buga", "tipo": "VEREDA"}, "geometry": {"type": "Point", "coordinates": [-76.1857875548013, 3.89430104121829]}}, {"type": "Feature", "properties": {"nombre": "Alban", "depto": "VALLE", "provincia": "NORTE", "cod_dane": "762462001", "municipio": "El Cairo", "tipo": "VEREDA"}, "geometry": {"type": "Point", "coordinates": [-76.1764648379193, 4.78560458740988]}}, {"type": "Feature", "properties": {"nombre": "Alcal\u00e1", "depto": "VALLE", "provincia": "NORTE", "cod_dane": "760201000", "municipio": "Alcal\u00e1", "tipo": "CABECERA"}, "geometry": {"type": "Point", "coordinates": [-75.7854867294604, 4.67712775792961]}}, {"type": "Feature", "properties": {"nombre": "Alto Barragan", "depto": "VALLE", "provincia": "ORIENTE", "cod_dane": "761222009", "municipio": "Caicedonia", "tipo": "VEREDA"}, "geometry": {"type": "Point", "coordinates": [-75.7970994555003, 4.33950375750434]}}, {"type": "Feature", "properties": {"nombre": "Amaime", "depto": "VALLE", "provincia": "SUR", "cod_dane": "765202002", "municipio": "Palmira", "tipo": "VEREDA"}, "geometry": {"type": "Point", "coordinates": [-76.2770552403215, 3.60915633386738]}}, {"type": "Feature", "properties": {"nombre": "Anacaro", "depto": "VALLE", "provincia": "NORTE", "cod_dane": "760412001", "municipio": "Ansermanuevo", "tipo": "VEREDA"}, "geometry": {"type": "Point", "coordinates": [-75.9747171033764, 4.78942226361385]}}, {"type": "Feature", "properties": {"nombre": "Andaluc\u00eda", "depto": "VALLE", "provincia": "CENTRO", "cod_dane": "760361000", "municipio": "Andaluc\u00eda", "tipo": "CABECERA"}, "geometry": {"type": "Point", "coordinates": [-76.168650487569, 4.17552484319943]}}, {"type": "Feature", "properties": {"nombre": "Andinapolis", "depto": "VALLE", "provincia": "CENTRO", "cod_dane": "768282002", "municipio": "Trujillo", "tipo": "VEREDA"}, "geometry": {"type": "Point", "coordinates": [-76.3895857813504, 4.16981286465898]}}, {"type": "Feature", "properties": {"nombre": "Ansermanuevo", "depto": "VALLE", "provincia": "NORTE", "cod_dane": "760411000", "municipio": "Ansermanuevo", "tipo": "CABECERA"}, "geometry": {"type": "Point", "coordinates": [-75.9960114719697, 4.7972552165806]}}, {"type": "Feature", "properties": {"nombre": "Argelia", "depto": "VALLE", "provincia": "NORTE", "cod_dane": "760541000", "municipio": "Argelia", "tipo": "CABECERA"}, "geometry": {"type": "Point", "coordinates": [-76.1249136841138, 4.72985352871338]}}, {"type": "Feature", "properties": {"nombre": "Aures", "depto": "VALLE", "provincia": "ORIENTE", "cod_dane": "761222001", "municipio": "Caicedonia", "tipo": "VEREDA"}, "geometry": {"type": "Point", "coordinates": [-75.8397802047966, 4.24117023933235]}}, {"type": "Feature", "properties": {"nombre": "Bajo Calima", "depto": "VALLE", "provincia": "OCCIDENTE", "cod_dane": "761092006", "municipio": "Buenaventura", "tipo": "VEREDA"}, "geometry": {"type": "Point", "coordinates": [-76.98177009382, 4.00202647520247]}}, {"type": "Feature", "properties": {"nombre": "Barragan", "depto": "VALLE", "provincia": "CENTRO", "cod_dane": "768342003", "municipio": "Tulu\u00e1", "tipo": "VEREDA"}, "geometry": {"type": "Point", "coordinates": [-75.8884167171404, 4.03563556080756]}}, {"type": "Feature", "properties": {"nombre": "Barrancas", "depto": "VALLE", "provincia": "SUR", "cod_dane": "765202004", "municipio": "Palmira", "tipo": "VEREDA"}, "geometry": {"type": "Point", "coordinates": [-76.2458393102064, 3.54521867196666]}}, {"type": "Feature", "properties": {"nombre": "Bazan (La Bocana)", "depto": "VALLE", "provincia": "OCCIDENTE", "cod_dane": "761092003", "municipio": "Buenaventura", "tipo": "VEREDA"}, "geometry": {"type": "Point", "coordinates": [-77.1862452850119, 3.83567624487445]}}, {"type": "Feature", "properties": {"nombre": "Betania", "depto": "VALLE", "provincia": "NORTE", "cod_dane": "761002001", "municipio": "Bolivar", "tipo": "VEREDA"}, "geometry": {"type": "Point", "coordinates": [-76.3126140744348, 4.43994065439106]}}, {"type": "Feature", "properties": {"nombre": "Bitaco", "depto": "VALLE", "provincia": "NORTE", "cod_dane": "762502003", "municipio": "El Dovio", "tipo": "VEREDA"}, "geometry": {"type": "Point", "coordinates": [-76.3538227755435, 4.49802881067101]}}, {"type": "Feature", "properties": {"nombre": "Bitaco", "depto": "VALLE", "provincia": "SUR", "cod_dane": "763772001", "municipio": "La Cumbre", "tipo": "VEREDA"}, "geometry": {"type": "Point", "coordinates": [-76.6027440203855, 3.61298202796512]}}, {"type": "Feature", "properties": {"nombre": "Bohio", "depto": "VALLE", "provincia": "NORTE", "cod_dane": "768232001", "municipio": "Toro", "tipo": "VEREDA"}, "geometry": {"type": "Point", "coordinates": [-76.0634425751817, 4.62075634136711]}}, {"type": "Feature", "properties": {"nombre": "Bolo Alizal", "depto": "VALLE", "provincia": "SUR", "cod_dane": "765202005", "municipio": "Palmira", "tipo": "VEREDA"}, "geometry": {"type": "Point", "coordinates": [-76.3529028795578, 3.46739699869513]}}, {"type": "Feature", "properties": {"nombre": "Bolo San Isidro", "depto": "VALLE", "provincia": "SUR", "cod_dane": "765202007", "municipio": "Palmira", "tipo": "VEREDA"}, "geometry": {"type": "Point", "coordinates": [-76.3376619964575, 3.46509771220617]}}, {"type": "Feature", "properties": {"nombre": "Borrero Ayerbe", "depto": "VALLE", "provincia": "SUR", "cod_dane": "762332002", "municipio": "Dagua", "tipo": "VEREDA"}, "geometry": {"type": "Point", "coordinates": [-76.6482415106993, 3.57553432970246]}}, {"type": "Feature", "properties": {"nombre": "Buchitolo", "depto": "VALLE", "provincia": "SUR", "cod_dane": "761302001", "municipio": "Candelaria", "tipo": "VEREDA"}, "geometry": {"type": "Point", "coordinates": [-76.4107027451942, 3.38449130241022]}}, {"type": "Feature", "properties": {"nombre": "Buenaventura", "depto": "VALLE", "provincia": "OCCIDENTE", "cod_dane": "761091000", "municipio": "Buenaventura", "tipo": "CABECERA"}, "geometry": {"type": "Point", "coordinates": [-77.016157789831, 3.8794806147503]}}, {"type": "Feature", "properties": {"nombre": "Buenos Aires", "depto": "VALLE", "provincia": "CENTRO", "cod_dane": "766702002", "municipio": "San Pedro", "tipo": "VEREDA"}, "geometry": {"type": "Point", "coordinates": [-76.1770616297568, 3.9317605631247]}}, {"type": "Feature", "properties": {"nombre": "Buga", "depto": "VALLE", "provincia": "CENTRO", "cod_dane": "761111000", "municipio": "Buga", "tipo": "CABECERA"}, "geometry": {"type": "Point", "coordinates": [-76.3038074046078, 3.9017237148066]}}, {"type": "Feature", "properties": {"nombre": "Bugalagrande", "depto": "VALLE", "provincia": "CENTRO", "cod_dane": "761131000", "municipio": "Bugalagrande", "tipo": "CABECERA"}, "geometry": {"type": "Point", "coordinates": [-76.1597366316922, 4.21220595756064]}}, {"type": "Feature", "properties": {"nombre": "Caicedonia", "depto": "VALLE", "provincia": "ORIENTE", "cod_dane": "761221000", "municipio": "Caicedonia", "tipo": "CABECERA"}, "geometry": {"type": "Point", "coordinates": [-75.8341572943763, 4.33788025682675]}}, {"type": "Feature", "properties": {"nombre": "Cajamarca", "depto": "VALLE", "provincia": "NORTE", "cod_dane": "766222001", "municipio": "Roldanillo", "tipo": "VEREDA"}, "geometry": {"type": "Point", "coordinates": [-76.2187959979781, 4.48931978888839]}}, {"type": "Feature", "properties": {"nombre": "Campoalegre", "depto": "VALLE", "provincia": "CENTRO", "cod_dane": "760362002", "municipio": "Andaluc\u00eda", "tipo": "VEREDA"}, "geometry": {"type": "Point", "coordinates": [-76.2114686221277, 4.18233651870335]}}, {"type": "Feature", "properties": {"nombre": "Candelaria", "depto": "VALLE", "provincia": "SUR", "cod_dane": "761301000", "municipio": "Candelaria", "tipo": "CABECERA"}, "geometry": {"type": "Point", "coordinates": [-76.3522630555792, 3.41556553084605]}}, {"type": "Feature", "properties": {"nombre": "Cartago", "depto": "VALLE", "provincia": "NORTE", "cod_dane": "761471000", "municipio": "Cartago", "tipo": "CABECERA"}, "geometry": {"type": "Point", "coordinates": [-75.9261493422115, 4.75127576720549]}}, {"type": "Feature", "properties": {"nombre": "Cascajal", "depto": "VALLE", "provincia": "SUR", "cod_dane": "760012019", "municipio": "Cali", "tipo": "VEREDA"}, "geometry": {"type": "Point", "coordinates": [-76.5022108454509, 3.32035934321576]}}, {"type": "Feature", "properties": {"nombre": "Ceilan", "depto": "VALLE", "provincia": "CENTRO", "cod_dane": "761132001", "municipio": "Bugalagrande", "tipo": "VEREDA"}, "geometry": {"type": "Point", "coordinates": [-76.0449111719777, 4.11383439327722]}}, {"type": "Feature", "properties": {"nombre": "Chambimbal (La Campina)", "depto": "VALLE", "provincia": "CENTRO", "cod_dane": "761112001", "municipio": "Buga", "tipo": "VEREDA"}, "geometry": {"type": "Point", "coordinates": [-76.2858130847082, 3.9475217767789]}}, {"type": "Feature", "properties": {"nombre": "Chontaduro", "depto": "VALLE", "provincia": "SUR", "cod_dane": "765202013", "municipio": "Palmira", "tipo": "VEREDA"}, "geometry": {"type": "Point", "coordinates": [-76.2125988129131, 3.49459745571485]}}, {"type": "Feature", "properties": {"nombre": "Cisneros", "depto": "VALLE", "provincia": "OCCIDENTE", "cod_dane": "761092008", "municipio": "Buenaventura", "tipo": "VEREDA"}, "geometry": {"type": "Point", "coordinates": [-76.7665711812902, 3.78993816498298]}}, {"type": "Feature", "properties": {"nombre": "Corozal", "depto": "VALLE", "provincia": "ORIENTE", "cod_dane": "767362004", "municipio": "Sevilla", "tipo": "VEREDA"}, "geometry": {"type": "Point", "coordinates": [-75.9214081434131, 4.40172603467527]}}, {"type": "Feature", "properties": {"nombre": "Costa Rica", "depto": "VALLE", "provincia": "CENTRO", "cod_dane": "763062001", "municipio": "Ginebra", "tipo": "VEREDA"}, "geometry": {"type": "Point", "coordinates": [-76.237322418601, 3.75412109639849]}}, {"type": "Feature", "properties": {"nombre": "Cruces", "depto": "VALLE", "provincia": "NORTE", "cod_dane": "764972001", "municipio": "Obando", "tipo": "VEREDA"}, "geometry": {"type": "Point", "coordinates": [-75.9244749733672, 4.64648154113183]}}, {"type": "Feature", "properties": {"nombre": "Cumbarco", "depto": "VALLE", "provincia": "ORIENTE", "cod_dane": "767362005", "municipio": "Sevilla", "tipo": "VEREDA"}, "geometry": {"type": "Point", "coordinates": [-75.8328129593953, 4.19767293550642]}}, {"type": "Feature", "properties": {"nombre": "Dagua", "depto": "VALLE", "provincia": "SUR", "cod_dane": "762331000", "municipio": "Dagua", "tipo": "CABECERA"}, "geometry": {"type": "Point", "coordinates": [-76.6927723993071, 3.65975689620765]}}, {"type": "Feature", "properties": {"nombre": "Dapa", "depto": "VALLE", "provincia": "SUR", "cod_dane": "768922002", "municipio": "Yumbo", "tipo": "VEREDA"}, "geometry": {"type": "Point", "coordinates": [-76.5721908886562, 3.56150554583273]}}, {"type": "Feature", "properties": {"nombre": "Darien", "depto": "VALLE", "provincia": "CENTRO", "cod_dane": "761261000", "municipio": "Darien", "tipo": "CABECERA"}, "geometry": {"type": "Point", "coordinates": [-76.489364433789, 3.93446259843705]}}, {"type": "Feature", "properties": {"nombre": "Dos Quebradas", "depto": "VALLE", "provincia": "CENTRO", "cod_dane": "768282004", "municipio": "Trujillo", "tipo": "VEREDA"}, "geometry": {"type": "Point", "coordinates": [-76.3671750812919, 4.29682253225342]}}, {"type": "Feature", "properties": {"nombre": "El Aguila", "depto": "VALLE", "provincia": "NORTE", "cod_dane": "762431000", "municipio": "El Aguila", "tipo": "CABECERA"}, "geometry": {"type": "Point", "coordinates": [-76.0451686173892, 4.91186034162705]}}, {"type": "Feature", "properties": {"nombre": "El Arenal", "depto": "VALLE", "provincia": "SUR", "cod_dane": "761302002", "municipio": "Candelaria", "tipo": "VEREDA"}, "geometry": {"type": "Point", "coordinates": [-76.3585481991346, 3.38954556535003]}}, {"type": "Feature", "properties": {"nombre": "El Balsal", "depto": "VALLE", "provincia": "NORTE", "cod_dane": "768632002", "municipio": "Versalles", "tipo": "VEREDA"}, "geometry": {"type": "Point", "coordinates": [-76.2335773312835, 4.66959829743375]}}, {"type": "Feature", "properties": {"nombre": "El Billar", "depto": "VALLE", "provincia": "NORTE", "cod_dane": "760412003", "municipio": "Ansermanuevo", "tipo": "VEREDA"}, "geometry": {"type": "Point", "coordinates": [-76.0938972205901, 4.82207507455466]}}, {"type": "Feature", "properties": {"nombre": "El Brillante", "depto": "VALLE", "provincia": "NORTE", "cod_dane": "768452006", "municipio": "Ulloa", "tipo": "VEREDA"}, "geometry": {"type": "Point", "coordinates": [-75.7412288641724, 4.70976396188013]}}, {"type": "Feature", "properties": {"nombre": "El Cabuyal", "depto": "VALLE", "provincia": "SUR", "cod_dane": "761302003", "municipio": "Candelaria", "tipo": "VEREDA"}, "geometry": {"type": "Point", "coordinates": [-76.3527987999684, 3.32706510015035]}}, {"type": "Feature", "properties": {"nombre": "El Cairo", "depto": "VALLE", "provincia": "NORTE", "cod_dane": "762461000", "municipio": "El Cairo", "tipo": "CABECERA"}, "geometry": {"type": "Point", "coordinates": [-76.2249639323312, 4.7639466508029]}}, {"type": "Feature", "properties": {"nombre": "El Carmelo", "depto": "VALLE", "provincia": "SUR", "cod_dane": "761302004", "municipio": "Candelaria", "tipo": "VEREDA"}, "geometry": {"type": "Point", "coordinates": [-76.4208164841267, 3.40530637306898]}}, {"type": "Feature", "properties": {"nombre": "El Carmen", "depto": "VALLE", "provincia": "SUR", "cod_dane": "762332005", "municipio": "Dagua", "tipo": "VEREDA"}, "geometry": {"type": "Point", "coordinates": [-76.6556290445863, 3.55510537969261]}}, {"type": "Feature", "properties": {"nombre": "El Castillo", "depto": "VALLE", "provincia": "CENTRO", "cod_dane": "762482003", "municipio": "El Cerrito", "tipo": "VEREDA"}, "geometry": {"type": "Point", "coordinates": [-76.1964575718717, 3.66806870026732]}}, {"type": "Feature", "properties": {"nombre": "El Cerrito", "depto": "VALLE", "provincia": "CENTRO", "cod_dane": "762481000", "municipio": "El Cerrito", "tipo": "CABECERA"}, "geometry": {"type": "Point", "coordinates": [-76.315078576767, 3.68725744196423]}}, {"type": "Feature", "properties": {"nombre": "El Dovio", "depto": "VALLE", "provincia": "NORTE", "cod_dane": "762501000", "municipio": "El Dovio", "tipo": "CABECERA"}, "geometry": {"type": "Point", "coordinates": [-76.2405138868636, 4.51204947350118]}}, {"type": "Feature", "properties": {"nombre": "El Overo", "depto": "VALLE", "provincia": "CENTRO", "cod_dane": "761132004", "municipio": "Bugalagrande", "tipo": "VEREDA"}, "geometry": {"type": "Point", "coordinates": [-76.1376912598684, 4.24713118438006]}}, {"type": "Feature", "properties": {"nombre": "El Pedregal", "depto": "VALLE", "provincia": "SUR", "cod_dane": "768922014", "municipio": "Yumbo", "tipo": "VEREDA"}, "geometry": {"type": "Point", "coordinates": [-76.5485373835367, 3.50668171815695]}}, {"type": "Feature", "properties": {"nombre": "El Placer", "depto": "VALLE", "provincia": "CENTRO", "cod_dane": "762482005", "municipio": "El Cerrito", "tipo": "VEREDA"}, "geometry": {"type": "Point", "coordinates": [-76.2753657685312, 3.61568333684116]}}, {"type": "Feature", "properties": {"nombre": "El Queremal", "depto": "VALLE", "provincia": "SUR", "cod_dane": "762332011", "municipio": "Dagua", "tipo": "VEREDA"}, "geometry": {"type": "Point", "coordinates": [-76.7156052552864, 3.52688005441525]}}, {"type": "Feature", "properties": {"nombre": "El Retiro", "depto": "VALLE", "provincia": "NORTE", "cod_dane": "766222002", "municipio": "Roldanillo", "tipo": "VEREDA"}, "geometry": {"type": "Point", "coordinates": [-76.2406654716788, 4.39819342699114]}}, {"type": "Feature", "properties": {"nombre": "El Salto", "depto": "VALLE", "provincia": "CENTRO", "cod_dane": "760362003", "municipio": "Andaluc\u00eda", "tipo": "VEREDA"}, "geometry": {"type": "Point", "coordinates": [-76.2385040529967, 4.16710882281747]}}, {"type": "Feature", "properties": {"nombre": "El Tiple", "depto": "VALLE", "provincia": "SUR", "cod_dane": "761302006", "municipio": "Candelaria", "tipo": "VEREDA"}, "geometry": {"type": "Point", "coordinates": [-76.4289832759636, 3.35305232711851]}}, {"type": "Feature", "properties": {"nombre": "El Vergel", "depto": "VALLE", "provincia": "NORTE", "cod_dane": "760412006", "municipio": "Ansermanuevo", "tipo": "VEREDA"}, "geometry": {"type": "Point", "coordinates": [-76.0014996312548, 4.86325960143892]}}, {"type": "Feature", "properties": {"nombre": "El Vinculo", "depto": "VALLE", "provincia": "CENTRO", "cod_dane": "761112005", "municipio": "Buga", "tipo": "VEREDA"}, "geometry": {"type": "Point", "coordinates": [-76.3095217060528, 3.81861164047279]}}, {"type": "Feature", "properties": {"nombre": "Estacion Caicedonia", "depto": "VALLE", "provincia": "ORIENTE", "cod_dane": "767362019", "municipio": "Sevilla", "tipo": "VEREDA"}, "geometry": {"type": "Point", "coordinates": [-75.8857527168518, 4.41325838534296]}}, {"type": "Feature", "properties": {"nombre": "Felidia", "depto": "VALLE", "provincia": "SUR", "cod_dane": "760012002", "municipio": "Cali", "tipo": "VEREDA"}, "geometry": {"type": "Point", "coordinates": [-76.6329014580775, 3.47134749457099]}}, {"type": "Feature", "properties": {"nombre": "Fenicia", "depto": "VALLE", "provincia": "CENTRO", "cod_dane": "766162002", "municipio": "Riofrio", "tipo": "VEREDA"}, "geometry": {"type": "Point", "coordinates": [-76.3920731390483, 4.07285127272043]}}, {"type": "Feature", "properties": {"nombre": "Floresta", "depto": "VALLE", "provincia": "CENTRO", "cod_dane": "763062002", "municipio": "Ginebra", "tipo": "VEREDA"}, "geometry": {"type": "Point", "coordinates": [-76.244298370416, 3.73273733930051]}}, {"type": "Feature", "properties": {"nombre": "Florida", "depto": "VALLE", "provincia": "SUR", "cod_dane": "762751000", "municipio": "Florida", "tipo": "CABECERA"}, "geometry": {"type": "Point", "coordinates": [-76.2401973849533, 3.3245232767076]}}, {"type": "Feature", "properties": {"nombre": "Frazadas", "depto": "VALLE", "provincia": "CENTRO", "cod_dane": "768342007", "municipio": "Tulu\u00e1", "tipo": "VEREDA"}, "geometry": {"type": "Point", "coordinates": [-76.0020731385604, 4.05816649755399]}}, {"type": "Feature", "properties": {"nombre": "Galicia", "depto": "VALLE", "provincia": "CENTRO", "cod_dane": "761132008", "municipio": "Bugalagrande", "tipo": "VEREDA"}, "geometry": {"type": "Point", "coordinates": [-76.0611598609708, 4.1755395754952]}}, {"type": "Feature", "properties": {"nombre": "Ginebra", "depto": "VALLE", "provincia": "CENTRO", "cod_dane": "763061000", "municipio": "Ginebra", "tipo": "CABECERA"}, "geometry": {"type": "Point", "coordinates": [-76.2716836000519, 3.72788156422276]}}, {"type": "Feature", "properties": {"nombre": "Guabas", "depto": "VALLE", "provincia": "CENTRO", "cod_dane": "763182003", "municipio": "Guacar\u00ed", "tipo": "VEREDA"}, "geometry": {"type": "Point", "coordinates": [-76.3705343835379, 3.76664710171694]}}, {"type": "Feature", "properties": {"nombre": "Guabitas", "depto": "VALLE", "provincia": "CENTRO", "cod_dane": "763182004", "municipio": "Guacar\u00ed", "tipo": "VEREDA"}, "geometry": {"type": "Point", "coordinates": [-76.3068618434998, 3.76559975954858]}}, {"type": "Feature", "properties": {"nombre": "Guacar\u00ed", "depto": "VALLE", "provincia": "CENTRO", "cod_dane": "763181000", "municipio": "Guacar\u00ed", "tipo": "CABECERA"}, "geometry": {"type": "Point", "coordinates": [-76.3369955978735, 3.76455629910908]}}, {"type": "Feature", "properties": {"nombre": "Guacas", "depto": "VALLE", "provincia": "CENTRO", "cod_dane": "763182009", "municipio": "Guacar\u00ed", "tipo": "VEREDA"}, "geometry": {"type": "Point", "coordinates": [-76.2609523936147, 3.83598821750031]}}, {"type": "Feature", "properties": {"nombre": "Guanabanal", "depto": "VALLE", "provincia": "SUR", "cod_dane": "765202014", "municipio": "Palmira", "tipo": "VEREDA"}, "geometry": {"type": "Point", "coordinates": [-76.4303545070375, 3.48688497376483]}}, {"type": "Feature", "properties": {"nombre": "Guayabal", "depto": "VALLE", "provincia": "CENTRO", "cod_dane": "766702010", "municipio": "San Pedro", "tipo": "VEREDA"}, "geometry": {"type": "Point", "coordinates": [-76.2353110762636, 4.00806140923134]}}, {"type": "Feature", "properties": {"nombre": "Guayabal", "depto": "VALLE", "provincia": "SUR", "cod_dane": "765202015", "municipio": "Palmira", "tipo": "VEREDA"}, "geometry": {"type": "Point", "coordinates": [-76.2646163257907, 3.55022469012024]}}, {"type": "Feature", "properties": {"nombre": "Higueroncito", "depto": "VALLE", "provincia": "NORTE", "cod_dane": "766222003", "municipio": "Roldanillo", "tipo": "VEREDA"}, "geometry": {"type": "Point", "coordinates": [-76.1055552264522, 4.49881101931819]}}, {"type": "Feature", "properties": {"nombre": "Holguin", "depto": "VALLE", "provincia": "NORTE", "cod_dane": "764032003", "municipio": "La Victoria", "tipo": "VEREDA"}, "geometry": {"type": "Point", "coordinates": [-75.9918992117986, 4.51065646110875]}}, {"type": "Feature", "properties": {"nombre": "Hormiguero", "depto": "VALLE", "provincia": "SUR", "cod_dane": "760012004", "municipio": "Cali", "tipo": "VEREDA"}, "geometry": {"type": "Point", "coordinates": [-76.4820510133276, 3.31819918094292]}}, {"type": "Feature", "properties": {"nombre": "Huasano", "depto": "VALLE", "provincia": "CENTRO", "cod_dane": "768282006", "municipio": "Trujillo", "tipo": "VEREDA"}, "geometry": {"type": "Point", "coordinates": [-76.2478747798961, 4.24801755058008]}}, {"type": "Feature", "properties": {"nombre": "Jamund\u00ed", "depto": "VALLE", "provincia": "SUR", "cod_dane": "763641000", "municipio": "Jamund\u00ed", "tipo": "CABECERA"}, "geometry": {"type": "Point", "coordinates": [-76.542686972901, 3.26542705696167]}}, {"type": "Feature", "properties": {"nombre": "Juan Diaz", "depto": "VALLE", "provincia": "NORTE", "cod_dane": "764972003", "municipio": "Obando", "tipo": "VEREDA"}, "geometry": {"type": "Point", "coordinates": [-76.0252444069519, 4.6531664883706]}}, {"type": "Feature", "properties": {"nombre": "Juanchaco", "depto": "VALLE", "provincia": "OCCIDENTE", "cod_dane": "761092046", "municipio": "Buenaventura", "tipo": "VEREDA"}, "geometry": {"type": "Point", "coordinates": [-77.3569168400353, 3.93292934549319]}}, {"type": "Feature", "properties": {"nombre": "Juanchito", "depto": "VALLE", "provincia": "SUR", "cod_dane": "765202016", "municipio": "Palmira", "tipo": "VEREDA"}, "geometry": {"type": "Point", "coordinates": [-76.4783506858642, 3.45812509284321]}}, {"type": "Feature", "properties": {"nombre": "Juanchito Guali", "depto": "VALLE", "provincia": "SUR", "cod_dane": "761302007", "municipio": "Candelaria", "tipo": "VEREDA"}, "geometry": {"type": "Point", "coordinates": [-76.4756350648768, 3.45144839410612]}}, {"type": "Feature", "properties": {"nombre": "La Aurora", "depto": "VALLE", "provincia": "NORTE", "cod_dane": "760542005", "municipio": "Argelia", "tipo": "VEREDA"}, "geometry": {"type": "Point", "coordinates": [-76.1581600131122, 4.72798911961114]}}, {"type": "Feature", "properties": {"nombre": "La Barra", "depto": "VALLE", "provincia": "OCCIDENTE", "cod_dane": "761092045", "municipio": "Buenaventura", "tipo": "VEREDA"}, "geometry": {"type": "Point", "coordinates": [-77.3831400237131, 3.96955962403476]}}, {"type": "Feature", "properties": {"nombre": "La Bolsa", "depto": "VALLE", "provincia": "SUR", "cod_dane": "765202035", "municipio": "Palmira", "tipo": "VEREDA"}, "geometry": {"type": "Point", "coordinates": [-76.2406203505986, 3.55897712077353]}}, {"type": "Feature", "properties": {"nombre": "La Buitrera", "depto": "VALLE", "provincia": "SUR", "cod_dane": "765202032", "municipio": "Palmira", "tipo": "VEREDA"}, "geometry": {"type": "Point", "coordinates": [-76.2126363229524, 3.48586992154204]}}, {"type": "Feature", "properties": {"nombre": "La Concordia", "depto": "VALLE", "provincia": "SUR", "cod_dane": "765632023", "municipio": "Pradera", "tipo": "VEREDA"}, "geometry": {"type": "Point", "coordinates": [-76.2413332533649, 3.40533385822814]}}, {"type": "Feature", "properties": {"nombre": "La Cumbre", "depto": "VALLE", "provincia": "SUR", "cod_dane": "763771000", "municipio": "La Cumbre", "tipo": "CABECERA"}, "geometry": {"type": "Point", "coordinates": [-76.5717647703497, 3.65235864156416]}}, {"type": "Feature", "properties": {"nombre": "La Dolores", "depto": "VALLE", "provincia": "SUR", "cod_dane": "765202038", "municipio": "Palmira", "tipo": "VEREDA"}, "geometry": {"type": "Point", "coordinates": [-76.4799750499966, 3.50035297252653]}}, {"type": "Feature", "properties": {"nombre": "La Esparta", "depto": "VALLE", "provincia": "NORTE", "cod_dane": "762432002", "municipio": "El Aguila", "tipo": "VEREDA"}, "geometry": {"type": "Point", "coordinates": [-75.992200275773, 4.91427378534181]}}, {"type": "Feature", "properties": {"nombre": "La Florida", "depto": "VALLE", "provincia": "NORTE", "cod_dane": "768632007", "municipio": "Versalles", "tipo": "VEREDA"}, "geometry": {"type": "Point", "coordinates": [-76.1409745409758, 4.652244741173]}}, {"type": "Feature", "properties": {"nombre": "La Gorgona", "depto": "VALLE", "provincia": "SUR", "cod_dane": "761302008", "municipio": "Candelaria", "tipo": "VEREDA"}, "geometry": {"type": "Point", "coordinates": [-76.3921602051987, 3.40071941906654]}}, {"type": "Feature", "properties": {"nombre": "La Granja", "depto": "VALLE", "provincia": "SUR", "cod_dane": "765632011", "municipio": "Pradera", "tipo": "VEREDA"}, "geometry": {"type": "Point", "coordinates": [-76.241721519703, 3.39957204766991]}}, {"type": "Feature", "properties": {"nombre": "La Habana", "depto": "VALLE", "provincia": "CENTRO", "cod_dane": "761112006", "municipio": "Buga", "tipo": "VEREDA"}, "geometry": {"type": "Point", "coordinates": [-76.1956970833728, 3.88363454811622]}}, {"type": "Feature", "properties": {"nombre": "La Herradura", "depto": "VALLE", "provincia": "SUR", "cod_dane": "765202018", "municipio": "Palmira", "tipo": "VEREDA"}, "geometry": {"type": "Point", "coordinates": [-76.3506706983338, 3.53927819847649]}}, {"type": "Feature", "properties": {"nombre": "La Iberia", "depto": "VALLE", "provincia": "CENTRO", "cod_dane": "768342009", "municipio": "Tulu\u00e1", "tipo": "VEREDA"}, "geometry": {"type": "Point", "coordinates": [-76.1115493063123, 4.0662361979684]}}, {"type": "Feature", "properties": {"nombre": "La Manuelita", "depto": "VALLE", "provincia": "SUR", "cod_dane": "765202036", "municipio": "Palmira", "tipo": "VEREDA"}, "geometry": {"type": "Point", "coordinates": [-76.2797551904794, 3.57628594932987]}}, {"type": "Feature", "properties": {"nombre": "La Maria", "depto": "VALLE", "provincia": "NORTE", "cod_dane": "762432005", "municipio": "El Aguila", "tipo": "VEREDA"}, "geometry": {"type": "Point", "coordinates": [-76.0856024908132, 4.87136958364671]}}, {"type": "Feature", "properties": {"nombre": "La Marina", "depto": "VALLE", "provincia": "CENTRO", "cod_dane": "768342010", "municipio": "Tulu\u00e1", "tipo": "VEREDA"}, "geometry": {"type": "Point", "coordinates": [-76.1168999198139, 4.04876353168293]}}, {"type": "Feature", "properties": {"nombre": "La Moralia", "depto": "VALLE", "provincia": "CENTRO", "cod_dane": "768342011", "municipio": "Tulu\u00e1", "tipo": "VEREDA"}, "geometry": {"type": "Point", "coordinates": [-76.0923284385367, 4.04155645428308]}}, {"type": "Feature", "properties": {"nombre": "La Orlidia", "depto": "VALLE", "provincia": "SUR", "cod_dane": "765202037", "municipio": "Palmira", "tipo": "VEREDA"}, "geometry": {"type": "Point", "coordinates": [-76.270551272375, 3.5467338173329]}}, {"type": "Feature", "properties": {"nombre": "La Paila", "depto": "VALLE", "provincia": "NORTE", "cod_dane": "768952002", "municipio": "Zarzal", "tipo": "VEREDA"}, "geometry": {"type": "Point", "coordinates": [-76.0758597721784, 4.32128951935754]}}, {"type": "Feature", "properties": {"nombre": "La Pampa", "depto": "VALLE", "provincia": "SUR", "cod_dane": "765202033", "municipio": "Palmira", "tipo": "VEREDA"}, "geometry": {"type": "Point", "coordinates": [-76.3849778646367, 3.60620874898153]}}, {"type": "Feature", "properties": {"nombre": "La Quebrada  De San Pablo", "depto": "VALLE", "provincia": "NORTE", "cod_dane": "762432030", "municipio": "El Aguila", "tipo": "VEREDA"}, "geometry": {"type": "Point", "coordinates": [-76.063835110185, 4.86267801145286]}}, {"type": "Feature", "properties": {"nombre": "La Regina", "depto": "VALLE", "provincia": "SUR", "cod_dane": "761302009", "municipio": "Candelaria", "tipo": "VEREDA"}, "geometry": {"type": "Point", "coordinates": [-76.3301131866803, 3.38039172814424]}}, {"type": "Feature", "properties": {"nombre": "La Rivera", "depto": "VALLE", "provincia": "CENTRO", "cod_dane": "768342026", "municipio": "Tulu\u00e1", "tipo": "VEREDA"}, "geometry": {"type": "Point", "coordinates": [-76.1762245603762, 4.07137161163052]}}, {"type": "Feature", "properties": {"nombre": "La Sonora", "depto": "VALLE", "provincia": "CENTRO", "cod_dane": "768282013", "municipio": "Trujillo", "tipo": "VEREDA"}, "geometry": {"type": "Point", "coordinates": [-76.3920837526768, 4.23296562293685]}}, {"type": "Feature", "properties": {"nombre": "La Tulia", "depto": "VALLE", "provincia": "NORTE", "cod_dane": "761002007", "municipio": "Bolivar", "tipo": "VEREDA"}, "geometry": {"type": "Point", "coordinates": [-76.2475487200202, 4.387463371221]}}, {"type": "Feature", "properties": {"nombre": "La Union", "depto": "VALLE", "provincia": "NORTE", "cod_dane": "764001000", "municipio": "La Union", "tipo": "CABECERA"}, "geometry": {"type": "Point", "coordinates": [-76.1070697404936, 4.53721947390228]}}, {"type": "Feature", "properties": {"nombre": "La Victoria", "depto": "VALLE", "provincia": "NORTE", "cod_dane": "764031000", "municipio": "La Victoria", "tipo": "CABECERA"}, "geometry": {"type": "Point", "coordinates": [-76.0396882597005, 4.52729831553158]}}, {"type": "Feature", "properties": {"nombre": "Limones", "depto": "VALLE", "provincia": "NORTE", "cod_dane": "768952003", "municipio": "Zarzal", "tipo": "VEREDA"}, "geometry": {"type": "Point", "coordinates": [-76.050581596134, 4.39036716027645]}}, {"type": "Feature", "properties": {"nombre": "Lituania", "depto": "VALLE", "provincia": "NORTE", "cod_dane": "762502007", "municipio": "El Dovio", "tipo": "VEREDA"}, "geometry": {"type": "Point", "coordinates": [-76.3554132902416, 4.51589658426659]}}, {"type": "Feature", "properties": {"nombre": "Lobo Guerrero", "depto": "VALLE", "provincia": "SUR", "cod_dane": "762332017", "municipio": "Dagua", "tipo": "VEREDA"}, "geometry": {"type": "Point", "coordinates": [-76.6683990542175, 3.76437619761201]}}, {"type": "Feature", "properties": {"nombre": "Lomitas", "depto": "VALLE", "provincia": "SUR", "cod_dane": "763772003", "municipio": "La Cumbre", "tipo": "VEREDA"}, "geometry": {"type": "Point", "coordinates": [-76.6442369874444, 3.63896753988313]}}, {"type": "Feature", "properties": {"nombre": "Madre Vieja", "depto": "VALLE", "provincia": "CENTRO", "cod_dane": "760362010", "municipio": "Andaluc\u00eda", "tipo": "VEREDA"}, "geometry": {"type": "Point", "coordinates": [-76.2142163534281, 4.19407297229258]}}, {"type": "Feature", "properties": {"nombre": "Matapalo", "depto": "VALLE", "provincia": "SUR", "cod_dane": "765202022", "municipio": "Palmira", "tipo": "VEREDA"}, "geometry": {"type": "Point", "coordinates": [-76.4289481921057, 3.58798406162131]}}, {"type": "Feature", "properties": {"nombre": "Miravalles", "depto": "VALLE", "provincia": "NORTE", "cod_dane": "764032004", "municipio": "La Victoria", "tipo": "VEREDA"}, "geometry": {"type": "Point", "coordinates": [-75.9209540825759, 4.51766084279786]}}, {"type": "Feature", "properties": {"nombre": "Molina", "depto": "VALLE", "provincia": "NORTE", "cod_dane": "764972005", "municipio": "Obando", "tipo": "VEREDA"}, "geometry": {"type": "Point", "coordinates": [-76.0315747001356, 4.62489781717736]}}, {"type": "Feature", "properties": {"nombre": "Monte Bello", "depto": "VALLE", "provincia": "SUR", "cod_dane": "760012016", "municipio": "Cali", "tipo": "VEREDA"}, "geometry": {"type": "Point", "coordinates": [-76.5545317694023, 3.48755942439235]}}, {"type": "Feature", "properties": {"nombre": "Monteloro", "depto": "VALLE", "provincia": "CENTRO", "cod_dane": "768342015", "municipio": "Tulu\u00e1", "tipo": "VEREDA"}, "geometry": {"type": "Point", "coordinates": [-76.0636860827453, 3.96748505601892]}}, {"type": "Feature", "properties": {"nombre": "Montezuma", "depto": "VALLE", "provincia": "NORTE", "cod_dane": "768452002", "municipio": "Ulloa", "tipo": "VEREDA"}, "geometry": {"type": "Point", "coordinates": [-75.7692451573951, 4.71349194682819]}}, {"type": "Feature", "properties": {"nombre": "Morelia", "depto": "VALLE", "provincia": "NORTE", "cod_dane": "766222007", "municipio": "Roldanillo", "tipo": "VEREDA"}, "geometry": {"type": "Point", "coordinates": [-76.1189072217483, 4.48087823856115]}}, {"type": "Feature", "properties": {"nombre": "Mulalo", "depto": "VALLE", "provincia": "SUR", "cod_dane": "768922005", "municipio": "Yumbo", "tipo": "VEREDA"}, "geometry": {"type": "Point", "coordinates": [-76.4868157526263, 3.6390126406177]}}, {"type": "Feature", "properties": {"nombre": "Naranjal", "depto": "VALLE", "provincia": "NORTE", "cod_dane": "761002008", "municipio": "Bolivar", "tipo": "VEREDA"}, "geometry": {"type": "Point", "coordinates": [-76.3577527928351, 4.3601225280284]}}, {"type": "Feature", "properties": {"nombre": "Obando", "depto": "VALLE", "provincia": "NORTE", "cod_dane": "764971000", "municipio": "Obando", "tipo": "CABECERA"}, "geometry": {"type": "Point", "coordinates": [-75.9765348101816, 4.57776725371356]}}, {"type": "Feature", "properties": {"nombre": "Obando", "depto": "VALLE", "provincia": "SUR", "cod_dane": "765202023", "municipio": "Palmira", "tipo": "VEREDA"}, "geometry": {"type": "Point", "coordinates": [-76.405809814766, 3.57748322493347]}}, {"type": "Feature", "properties": {"nombre": "Paila Arriba", "depto": "VALLE", "provincia": "CENTRO", "cod_dane": "761132011", "municipio": "Bugalagrande", "tipo": "VEREDA"}, "geometry": {"type": "Point", "coordinates": [-76.0421262107947, 4.24286317796346]}}, {"type": "Feature", "properties": {"nombre": "Palmaseca", "depto": "VALLE", "provincia": "SUR", "cod_dane": "765202024", "municipio": "Palmira", "tipo": "VEREDA"}, "geometry": {"type": "Point", "coordinates": [-76.437260895727, 3.51287718629133]}}, {"type": "Feature", "properties": {"nombre": "Palmira", "depto": "VALLE", "provincia": "SUR", "cod_dane": "765201000", "municipio": "Palmira", "tipo": "CABECERA"}, "geometry": {"type": "Point", "coordinates": [-76.3021413258378, 3.53729895744065]}}, {"type": "Feature", "properties": {"nombre": "Pavas", "depto": "VALLE", "provincia": "SUR", "cod_dane": "763772004", "municipio": "La Cumbre", "tipo": "VEREDA"}, "geometry": {"type": "Point", "coordinates": [-76.5877669888503, 3.67851691822259]}}, {"type": "Feature", "properties": {"nombre": "Pianguita", "depto": "VALLE", "provincia": "OCCIDENTE", "cod_dane": "761092047", "municipio": "Buenaventura", "tipo": "VEREDA"}, "geometry": {"type": "Point", "coordinates": [-77.200529476479, 3.84207707910941]}}, {"type": "Feature", "properties": {"nombre": "Pichichi", "depto": "VALLE", "provincia": "CENTRO", "cod_dane": "763182006", "municipio": "Guacar\u00ed", "tipo": "VEREDA"}, "geometry": {"type": "Point", "coordinates": [-76.2806636426792, 3.77671082746335]}}, {"type": "Feature", "properties": {"nombre": "Piedras", "depto": "VALLE", "provincia": "CENTRO", "cod_dane": "766162007", "municipio": "Riofrio", "tipo": "VEREDA"}, "geometry": {"type": "Point", "coordinates": [-76.3358721804364, 4.06077654370073]}}, {"type": "Feature", "properties": {"nombre": "Playa De Ladrilleros", "depto": "VALLE", "provincia": "OCCIDENTE", "cod_dane": "761092021", "municipio": "Buenaventura", "tipo": "VEREDA"}, "geometry": {"type": "Point", "coordinates": [-77.3680690295699, 3.93982921127881]}}, {"type": "Feature", "properties": {"nombre": "Potrerillo", "depto": "VALLE", "provincia": "SUR", "cod_dane": "765202025", "municipio": "Palmira", "tipo": "VEREDA"}, "geometry": {"type": "Point", "coordinates": [-76.2031407009205, 3.55746222792339]}}, {"type": "Feature", "properties": {"nombre": "Potrerito", "depto": "VALLE", "provincia": "SUR", "cod_dane": "763642006", "municipio": "Jamund\u00ed", "tipo": "VEREDA"}, "geometry": {"type": "Point", "coordinates": [-76.5860133187935, 3.23100667080508]}}, {"type": "Feature", "properties": {"nombre": "Pradera", "depto": "VALLE", "provincia": "SUR", "cod_dane": "765631000", "municipio": "Pradera", "tipo": "CABECERA"}, "geometry": {"type": "Point", "coordinates": [-76.2441947014544, 3.42197135171575]}}, {"type": "Feature", "properties": {"nombre": "Presidente", "depto": "VALLE", "provincia": "CENTRO", "cod_dane": "766702007", "municipio": "San Pedro", "tipo": "VEREDA"}, "geometry": {"type": "Point", "coordinates": [-76.2663137669004, 3.96409200588156]}}, {"type": "Feature", "properties": {"nombre": "Primavera", "depto": "VALLE", "provincia": "NORTE", "cod_dane": "761002009", "municipio": "Bolivar", "tipo": "VEREDA"}, "geometry": {"type": "Point", "coordinates": [-76.2681122587712, 4.35560781192422]}}, {"type": "Feature", "properties": {"nombre": "Pueblo Nuevo", "depto": "VALLE", "provincia": "CENTRO", "cod_dane": "766702021", "municipio": "San Pedro", "tipo": "VEREDA"}, "geometry": {"type": "Point", "coordinates": [-76.2381075698987, 3.98044655948142]}}, {"type": "Feature", "properties": {"nombre": "Puerto Merizalde", "depto": "VALLE", "provincia": "OCCIDENTE", "cod_dane": "761092028", "municipio": "Buenaventura", "tipo": "VEREDA"}, "geometry": {"type": "Point", "coordinates": [-77.4221501597137, 3.25716881749592]}}, {"type": "Feature", "properties": {"nombre": "Punta Soldado", "depto": "VALLE", "provincia": "OCCIDENTE", "cod_dane": "761092030", "municipio": "Buenaventura", "tipo": "VEREDA"}, "geometry": {"type": "Point", "coordinates": [-77.1713819103021, 3.77130542702501]}}, {"type": "Feature", "properties": {"nombre": "Quebrada Nueva", "depto": "VALLE", "provincia": "ORIENTE", "cod_dane": "767362018", "municipio": "Sevilla", "tipo": "VEREDA"}, "geometry": {"type": "Point", "coordinates": [-75.9529053518092, 4.37516575546318]}}, {"type": "Feature", "properties": {"nombre": "Quebradagrande", "depto": "VALLE", "provincia": "NORTE", "cod_dane": "764002005", "municipio": "La Union", "tipo": "VEREDA"}, "geometry": {"type": "Point", "coordinates": [-76.1681296587572, 4.55547265009596]}}, {"type": "Feature", "properties": {"nombre": "Quebradanueva", "depto": "VALLE", "provincia": "NORTE", "cod_dane": "768952004", "municipio": "Zarzal", "tipo": "VEREDA"}, "geometry": {"type": "Point", "coordinates": [-75.9549179647915, 4.3751921802208]}}, {"type": "Feature", "properties": {"nombre": "Quinamayo", "depto": "VALLE", "provincia": "SUR", "cod_dane": "763642009", "municipio": "Jamund\u00ed", "tipo": "VEREDA"}, "geometry": {"type": "Point", "coordinates": [-76.5607459122857, 3.13133924336789]}}, {"type": "Feature", "properties": {"nombre": "Restrepo", "depto": "VALLE", "provincia": "CENTRO", "cod_dane": "766061000", "municipio": "Restrepo", "tipo": "CABECERA"}, "geometry": {"type": "Point", "coordinates": [-76.5241625954122, 3.82589203696932]}}, {"type": "Feature", "properties": {"nombre": "Ricaurte", "depto": "VALLE", "provincia": "NORTE", "cod_dane": "761002010", "municipio": "Bolivar", "tipo": "VEREDA"}, "geometry": {"type": "Point", "coordinates": [-76.2109330245451, 4.31123806982405]}}, {"type": "Feature", "properties": {"nombre": "Riofrio", "depto": "VALLE", "provincia": "CENTRO", "cod_dane": "766161000", "municipio": "Riofrio", "tipo": "CABECERA"}, "geometry": {"type": "Point", "coordinates": [-76.2915981779661, 4.15951078410152]}}, {"type": "Feature", "properties": {"nombre": "Riveralta", "depto": "VALLE", "provincia": "NORTE", "cod_dane": "764032005", "municipio": "La Victoria", "tipo": "VEREDA"}, "geometry": {"type": "Point", "coordinates": [-75.8885115063754, 4.51344308041073]}}, {"type": "Feature", "properties": {"nombre": "Robledo", "depto": "VALLE", "provincia": "CENTRO", "cod_dane": "768282007", "municipio": "Trujillo", "tipo": "VEREDA"}, "geometry": {"type": "Point", "coordinates": [-76.2297451908547, 4.25617079263405]}}, {"type": "Feature", "properties": {"nombre": "Robles", "depto": "VALLE", "provincia": "SUR", "cod_dane": "763642010", "municipio": "Jamund\u00ed", "tipo": "VEREDA"}, "geometry": {"type": "Point", "coordinates": [-76.5966272707731, 3.13062622614516]}}, {"type": "Feature", "properties": {"nombre": "Roldanillo", "depto": "VALLE", "provincia": "NORTE", "cod_dane": "766221000", "municipio": "Roldanillo", "tipo": "CABECERA"}, "geometry": {"type": "Point", "coordinates": [-76.1555456348531, 4.4160220776824]}}, {"type": "Feature", "properties": {"nombre": "Rozo", "depto": "VALLE", "provincia": "SUR", "cod_dane": "765202026", "municipio": "Palmira", "tipo": "VEREDA"}, "geometry": {"type": "Point", "coordinates": [-76.3913209643074, 3.61831032993144]}}, {"type": "Feature", "properties": {"nombre": "Salonica", "depto": "VALLE", "provincia": "CENTRO", "cod_dane": "766162009", "municipio": "Riofrio", "tipo": "VEREDA"}, "geometry": {"type": "Point", "coordinates": [-76.3731675159175, 4.1312979307477]}}, {"type": "Feature", "properties": {"nombre": "Samaria", "depto": "VALLE", "provincia": "ORIENTE", "cod_dane": "761222006", "municipio": "Caicedonia", "tipo": "VEREDA"}, "geometry": {"type": "Point", "coordinates": [-75.8806143021637, 4.27261232511588]}}, {"type": "Feature", "properties": {"nombre": "San Antonio", "depto": "VALLE", "provincia": "NORTE", "cod_dane": "768232006", "municipio": "Toro", "tipo": "VEREDA"}, "geometry": {"type": "Point", "coordinates": [-76.0629190679525, 4.59576793470746]}}, {"type": "Feature", "properties": {"nombre": "San Antonio", "depto": "VALLE", "provincia": "ORIENTE", "cod_dane": "767362014", "municipio": "Sevilla", "tipo": "VEREDA"}, "geometry": {"type": "Point", "coordinates": [-75.943881791115, 4.21849273784132]}}, {"type": "Feature", "properties": {"nombre": "San Antonio", "depto": "VALLE", "provincia": "CENTRO", "cod_dane": "762482008", "municipio": "El Cerrito", "tipo": "VEREDA"}, "geometry": {"type": "Point", "coordinates": [-76.3558026343296, 3.68901203078196]}}, {"type": "Feature", "properties": {"nombre": "San Antonio", "depto": "VALLE", "provincia": "SUR", "cod_dane": "762752011", "municipio": "Florida", "tipo": "VEREDA"}, "geometry": {"type": "Point", "coordinates": [-76.3001225004507, 3.35698335219206]}}, {"type": "Feature", "properties": {"nombre": "San Antonio De Anchicaya", "depto": "VALLE", "provincia": "OCCIDENTE", "cod_dane": "761092035", "municipio": "Buenaventura", "tipo": "VEREDA"}, "geometry": {"type": "Point", "coordinates": [-77.0473987674961, 3.7414472769498]}}, {"type": "Feature", "properties": {"nombre": "San Antonio De Yurumagu", "depto": "VALLE", "provincia": "OCCIDENTE", "cod_dane": "761092031", "municipio": "Buenaventura", "tipo": "VEREDA"}, "geometry": {"type": "Point", "coordinates": [-77.2623535649231, 3.26376818283323]}}, {"type": "Feature", "properties": {"nombre": "San Bernardo", "depto": "VALLE", "provincia": "SUR", "cod_dane": "762332019", "municipio": "Dagua", "tipo": "VEREDA"}, "geometry": {"type": "Point", "coordinates": [-76.6542805224926, 3.49206055663258]}}, {"type": "Feature", "properties": {"nombre": "San Francisco", "depto": "VALLE", "provincia": "NORTE", "cod_dane": "768232007", "municipio": "Toro", "tipo": "VEREDA"}, "geometry": {"type": "Point", "coordinates": [-76.0376398664391, 4.68456387321933]}}, {"type": "Feature", "properties": {"nombre": "San Francisco", "depto": "VALLE", "provincia": "SUR", "cod_dane": "762752012", "municipio": "Florida", "tipo": "VEREDA"}, "geometry": {"type": "Point", "coordinates": [-76.2271603908021, 3.28703512656915]}}, {"type": "Feature", "properties": {"nombre": "San Isidro", "depto": "VALLE", "provincia": "NORTE", "cod_dane": "764972007", "municipio": "Obando", "tipo": "VEREDA"}, "geometry": {"type": "Point", "coordinates": [-75.9019510798581, 4.56465354478049]}}, {"type": "Feature", "properties": {"nombre": "San Joaquin", "depto": "VALLE", "provincia": "SUR", "cod_dane": "761302012", "municipio": "Candelaria", "tipo": "VEREDA"}, "geometry": {"type": "Point", "coordinates": [-76.4171795014909, 3.38687133849439]}}, {"type": "Feature", "properties": {"nombre": "San Luis", "depto": "VALLE", "provincia": "NORTE", "cod_dane": "764002006", "municipio": "La Union", "tipo": "VEREDA"}, "geometry": {"type": "Point", "coordinates": [-76.0897299069246, 4.55600337302464]}}, {"type": "Feature", "properties": {"nombre": "San Marcos", "depto": "VALLE", "provincia": "SUR", "cod_dane": "768922008", "municipio": "Yumbo", "tipo": "VEREDA"}, "geometry": {"type": "Point", "coordinates": [-76.4634180962141, 3.65994888778701]}}, {"type": "Feature", "properties": {"nombre": "San Pedro", "depto": "VALLE", "provincia": "CENTRO", "cod_dane": "766701000", "municipio": "San Pedro", "tipo": "CABECERA"}, "geometry": {"type": "Point", "coordinates": [-76.231947533333, 3.97969928186321]}}, {"type": "Feature", "properties": {"nombre": "San Roque Raiza", "depto": "VALLE", "provincia": "NORTE", "cod_dane": "760542004", "municipio": "Argelia", "tipo": "VEREDA"}, "geometry": {"type": "Point", "coordinates": [-76.1510054634033, 4.73641622143481]}}, {"type": "Feature", "properties": {"nombre": "Santa Elena", "depto": "VALLE", "provincia": "CENTRO", "cod_dane": "762482009", "municipio": "El Cerrito", "tipo": "VEREDA"}, "geometry": {"type": "Point", "coordinates": [-76.2489768651955, 3.66118500960776]}}, {"type": "Feature", "properties": {"nombre": "Santa Ines", "depto": "VALLE", "provincia": "SUR", "cod_dane": "768922009", "municipio": "Yumbo", "tipo": "VEREDA"}, "geometry": {"type": "Point", "coordinates": [-76.5416964080102, 3.63064075700165]}}, {"type": "Feature", "properties": {"nombre": "Santa Lucia", "depto": "VALLE", "provincia": "CENTRO", "cod_dane": "768342021", "municipio": "Tulu\u00e1", "tipo": "VEREDA"}, "geometry": {"type": "Point", "coordinates": [-75.9418860167073, 3.93373497575819]}}, {"type": "Feature", "properties": {"nombre": "Santa Luisa", "depto": "VALLE", "provincia": "CENTRO", "cod_dane": "762482010", "municipio": "El Cerrito", "tipo": "VEREDA"}, "geometry": {"type": "Point", "coordinates": [-76.0916587523579, 3.6257832226581]}}, {"type": "Feature", "properties": {"nombre": "Santa Rita", "depto": "VALLE", "provincia": "NORTE", "cod_dane": "766222009", "municipio": "Roldanillo", "tipo": "VEREDA"}, "geometry": {"type": "Point", "coordinates": [-76.1432199289971, 4.44948529297496]}}, {"type": "Feature", "properties": {"nombre": "Santa Rosa De Tapias", "depto": "VALLE", "provincia": "CENTRO", "cod_dane": "763182007", "municipio": "Guacar\u00ed", "tipo": "VEREDA"}, "geometry": {"type": "Point", "coordinates": [-76.2434563539484, 3.82348897127325]}}, {"type": "Feature", "properties": {"nombre": "Cali", "depto": "VALLE", "provincia": "SUR", "cod_dane": "760011000", "municipio": "Cali", "tipo": "CABECERA"}, "geometry": {"type": "Point", "coordinates": [-76.5277842648259, 3.4212905882062]}}, {"type": "Feature", "properties": {"nombre": "Sevilla", "depto": "VALLE", "provincia": "ORIENTE", "cod_dane": "767361000", "municipio": "Sevilla", "tipo": "CABECERA"}, "geometry": {"type": "Point", "coordinates": [-75.9353777691872, 4.2731287864778]}}, {"type": "Feature", "properties": {"nombre": "Sonso", "depto": "VALLE", "provincia": "CENTRO", "cod_dane": "763182008", "municipio": "Guacar\u00ed", "tipo": "VEREDA"}, "geometry": {"type": "Point", "coordinates": [-76.3099214010019, 3.80304913929785]}}, {"type": "Feature", "properties": {"nombre": "Tablones", "depto": "VALLE", "provincia": "SUR", "cod_dane": "765202027", "municipio": "Palmira", "tipo": "VEREDA"}, "geometry": {"type": "Point", "coordinates": [-76.2038798346245, 3.60600501136326]}}, {"type": "Feature", "properties": {"nombre": "Tamboral", "depto": "VALLE", "provincia": "CENTRO", "cod_dane": "760362006", "municipio": "Andaluc\u00eda", "tipo": "VEREDA"}, "geometry": {"type": "Point", "coordinates": [-76.1893491629299, 4.17039538558218]}}, {"type": "Feature", "properties": {"nombre": "Tarragona", "depto": "VALLE", "provincia": "SUR", "cod_dane": "762752014", "municipio": "Florida", "tipo": "VEREDA"}, "geometry": {"type": "Point", "coordinates": [-76.3372520291746, 3.28762426519123]}}, {"type": "Feature", "properties": {"nombre": "Tenerife", "depto": "VALLE", "provincia": "CENTRO", "cod_dane": "762482011", "municipio": "El Cerrito", "tipo": "VEREDA"}, "geometry": {"type": "Point", "coordinates": [-76.0793455035239, 3.73093556257406]}}, {"type": "Feature", "properties": {"nombre": "Tenjo", "depto": "VALLE", "provincia": "SUR", "cod_dane": "765202028", "municipio": "Palmira", "tipo": "VEREDA"}, "geometry": {"type": "Point", "coordinates": [-76.174353386056, 3.52411315439029]}}, {"type": "Feature", "properties": {"nombre": "Tienda Nueva", "depto": "VALLE", "provincia": "SUR", "cod_dane": "765202029", "municipio": "Palmira", "tipo": "VEREDA"}, "geometry": {"type": "Point", "coordinates": [-76.223829303841, 3.57493912681593]}}, {"type": "Feature", "properties": {"nombre": "Tierrablanca", "depto": "VALLE", "provincia": "NORTE", "cod_dane": "766222022", "municipio": "Roldanillo", "tipo": "VEREDA"}, "geometry": {"type": "Point", "coordinates": [-76.1307764583672, 4.41258564436493]}}, {"type": "Feature", "properties": {"nombre": "Timba", "depto": "VALLE", "provincia": "SUR", "cod_dane": "763642013", "municipio": "Jamund\u00ed", "tipo": "VEREDA"}, "geometry": {"type": "Point", "coordinates": [-76.6263154041964, 3.12498642632776]}}, {"type": "Feature", "properties": {"nombre": "Todos Santos", "depto": "VALLE", "provincia": "CENTRO", "cod_dane": "766702009", "municipio": "San Pedro", "tipo": "VEREDA"}, "geometry": {"type": "Point", "coordinates": [-76.2393120687687, 3.98281393170692]}}, {"type": "Feature", "properties": {"nombre": "Toro", "depto": "VALLE", "provincia": "NORTE", "cod_dane": "768231000", "municipio": "Toro", "tipo": "CABECERA"}, "geometry": {"type": "Point", "coordinates": [-76.0814775094131, 4.61178461692958]}}, {"type": "Feature", "properties": {"nombre": "Tres Esquinas", "depto": "VALLE", "provincia": "CENTRO", "cod_dane": "768342023", "municipio": "Tulu\u00e1", "tipo": "VEREDA"}, "geometry": {"type": "Point", "coordinates": [-76.2234080286653, 4.1216278702795]}}, {"type": "Feature", "properties": {"nombre": "Trujillo", "depto": "VALLE", "provincia": "CENTRO", "cod_dane": "768281000", "municipio": "Trujillo", "tipo": "CABECERA"}, "geometry": {"type": "Point", "coordinates": [-76.3220125325678, 4.21508569200939]}}, {"type": "Feature", "properties": {"nombre": "Tulu\u00e1", "depto": "VALLE", "provincia": "CENTRO", "cod_dane": "768341000", "municipio": "Tulu\u00e1", "tipo": "CABECERA"}, "geometry": {"type": "Point", "coordinates": [-76.1996655047908, 4.08955406469326]}}, {"type": "Feature", "properties": {"nombre": "Ulloa", "depto": "VALLE", "provincia": "NORTE", "cod_dane": "768451000", "municipio": "Ulloa", "tipo": "CABECERA"}, "geometry": {"type": "Point", "coordinates": [-75.7421217002236, 4.705679676724]}}, {"type": "Feature", "properties": {"nombre": "Uribe Uribe", "depto": "VALLE", "provincia": "CENTRO", "cod_dane": "761132013", "municipio": "Bugalagrande", "tipo": "VEREDA"}, "geometry": {"type": "Point", "coordinates": [-76.1219438279331, 4.25977952603555]}}, {"type": "Feature", "properties": {"nombre": "Vallejuelo", "depto": "VALLE", "provincia": "NORTE", "cod_dane": "768952005", "municipio": "Zarzal", "tipo": "VEREDA"}, "geometry": {"type": "Point", "coordinates": [-75.9992551034961, 4.37259944573033]}}, {"type": "Feature", "properties": {"nombre": "Venecia", "depto": "VALLE", "provincia": "CENTRO", "cod_dane": "768282010", "municipio": "Trujillo", "tipo": "VEREDA"}, "geometry": {"type": "Point", "coordinates": [-76.3949365914333, 4.19713537284027]}}, {"type": "Feature", "properties": {"nombre": "Veneral", "depto": "VALLE", "provincia": "OCCIDENTE", "cod_dane": "761092040", "municipio": "Buenaventura", "tipo": "VEREDA"}, "geometry": {"type": "Point", "coordinates": [-77.3328673473024, 3.32151442524053]}}, {"type": "Feature", "properties": {"nombre": "Versalles", "depto": "VALLE", "provincia": "NORTE", "cod_dane": "768631000", "municipio": "Versalles", "tipo": "CABECERA"}, "geometry": {"type": "Point", "coordinates": [-76.202862197138, 4.57816086241986]}}, {"type": "Feature", "properties": {"nombre": "Vijes", "depto": "VALLE", "provincia": "SUR", "cod_dane": "768691000", "municipio": "Vijes", "tipo": "CABECERA"}, "geometry": {"type": "Point", "coordinates": [-76.4451978773859, 3.70205842567507]}}, {"type": "Feature", "properties": {"nombre": "Villa Paz", "depto": "VALLE", "provincia": "SUR", "cod_dane": "763642015", "municipio": "Jamund\u00ed", "tipo": "VEREDA"}, "geometry": {"type": "Point", "coordinates": [-76.5461853045665, 3.13735577277549]}}, {"type": "Feature", "properties": {"nombre": "Villa Rodas", "depto": "VALLE", "provincia": "NORTE", "cod_dane": "764972008", "municipio": "Obando", "tipo": "VEREDA"}, "geometry": {"type": "Point", "coordinates": [-75.8864931222663, 4.61848880712345]}}, {"type": "Feature", "properties": {"nombre": "Villanueva", "depto": "VALLE", "provincia": "NORTE", "cod_dane": "762432008", "municipio": "El Aguila", "tipo": "VEREDA"}, "geometry": {"type": "Point", "coordinates": [-76.0426147915362, 4.9735544268906]}}, {"type": "Feature", "properties": {"nombre": "Yotoco", "depto": "VALLE", "provincia": "CENTRO", "cod_dane": "768901000", "municipio": "Yotoco", "tipo": "CABECERA"}, "geometry": {"type": "Point", "coordinates": [-76.3863703607043, 3.86348687032065]}}, {"type": "Feature", "properties": {"nombre": "Yumbo", "depto": "VALLE", "provincia": "SUR", "cod_dane": "768921000", "municipio": "Yumbo", "tipo": "CABECERA"}, "geometry": {"type": "Point", "coordinates": [-76.5018682850848, 3.5421788262496]}}, {"type": "Feature", "properties": {"nombre": "Zabaletas", "depto": "VALLE", "provincia": "OCCIDENTE", "cod_dane": "761092042", "municipio": "Buenaventura", "tipo": "VEREDA"}, "geometry": {"type": "Point", "coordinates": [-76.9688932235975, 3.74648988137642]}}, {"type": "Feature", "properties": {"nombre": "Zaragoza", "depto": "VALLE", "provincia": "NORTE", "cod_dane": "761472010", "municipio": "Cartago", "tipo": "VEREDA"}, "geometry": {"type": "Point", "coordinates": [-75.9294478182461, 4.69987787671293]}}, {"type": "Feature", "properties": {"nombre": "Zarzal", "depto": "VALLE", "provincia": "NORTE", "cod_dane": "768951000", "municipio": "Zarzal", "tipo": "CABECERA"}, "geometry": {"type": "Point", "coordinates": [-76.0747105956984, 4.39334765945696]}}]}