{"type": "FeatureCollection", "name": "centros_poblados_BOYACA", "crs": {"type": "name", "properties": {"name": "urn:ogc:def:crs:OGC:1.3:CRS84"}}, "features": [{"type": "Feature", "properties": {"nombre": "Almeida", "depto": "BOYACA", "cod_dane": "150221000", "municipio": "Almeida", "tipo": "CABECERA"}, "geometry": {"type": "Point", "coordinates": [-73.3821193628971, 4.97338758665581]}}, {"type": "Feature", "properties": {"nombre": "Aquitania", "depto": "BOYACA", "cod_dane": "150471000", "municipio": "Aquitania", "tipo": "CABECERA"}, "geometry": {"type": "Point", "coordinates": [-72.8875171786303, 5.52129695845668]}}, {"type": "Feature", "properties": {"nombre": "Arcabuco", "depto": "BOYACA", "cod_dane": "150511000", "municipio": "Arcabuco", "tipo": "CABECERA"}, "geometry": {"type": "Point", "coordinates": [-73.4405621384406, 5.75740569437193]}}, {"type": "Feature", "properties": {"nombre": "Bado Castro", "depto": "BOYACA", "cod_dane": "158202001", "municipio": "Topaga", "tipo": "VEREDA"}, "geometry": {"type": "Point", "coordinates": [-72.8677498138056, 5.77248441606755]}}, {"type": "Feature", "properties": {"nombre": "Belen", "depto": "BOYACA", "cod_dane": "150871000", "municipio": "Belen", "tipo": "CABECERA"}, "geometry": {"type": "Point", "coordinates": [-72.9151665441596, 5.99229746001422]}}, {"type": "Feature", "properties": {"nombre": "Belencito", "depto": "BOYACA", "cod_dane": "154912001", "municipio": "Nobsa", "tipo": "VEREDA"}, "geometry": {"type": "Point", "coordinates": [-72.8905334441401, 5.77598822150549]}}, {"type": "Feature", "properties": {"nombre": "Berbeo", "depto": "BOYACA", "cod_dane": "150901000", "municipio": "Berbeo", "tipo": "CABECERA"}, "geometry": {"type": "Point", "coordinates": [-73.1302591207445, 5.22980703009434]}}, {"type": "Feature", "properties": {"nombre": "Betania", "depto": "BOYACA", "cod_dane": "155072001", "municipio": "Otanche", "tipo": "VEREDA"}, "geometry": {"type": "Point", "coordinates": [-74.2189492064569, 5.80568489212622]}}, {"type": "Feature", "properties": {"nombre": "Beteitiva", "depto": "BOYACA", "cod_dane": "150921000", "municipio": "Beteitiva", "tipo": "CABECERA"}, "geometry": {"type": "Point", "coordinates": [-72.8124878509193, 5.91334478435678]}}, {"type": "Feature", "properties": {"nombre": "Boavita", "depto": "BOYACA", "cod_dane": "150971000", "municipio": "Boavita", "tipo": "CABECERA"}, "geometry": {"type": "Point", "coordinates": [-72.5882584104317, 6.33348388993333]}}, {"type": "Feature", "properties": {"nombre": "Bosiga Sur", "depto": "BOYACA", "cod_dane": "158372006", "municipio": "Tuta", "tipo": "VEREDA"}, "geometry": {"type": "Point", "coordinates": [-73.2268832078004, 5.7261673907269]}}, {"type": "Feature", "properties": {"nombre": "Boyaca", "depto": "BOYACA", "cod_dane": "130062002BOLIVARAchi", "municipio": "2", "tipo": "VEREDA"}, "geometry": {"type": "Point", "coordinates": [-74.5292629414253, 8.44986140221886]}}, {"type": "Feature", "properties": {"nombre": "Boyaca", "depto": "BOYACA", "cod_dane": "151041000", "municipio": "Boyaca", "tipo": "VEREDA"}, "geometry": {"type": "Point", "coordinates": [-73.3655036470178, 5.45741261595811]}}, {"type": "Feature", "properties": {"nombre": "Boyaca", "depto": "BOYACA", "cod_dane": "765202008VALLEPalmira", "municipio": "2", "tipo": "VEREDA"}, "geometry": {"type": "Point", "coordinates": [-76.2523329152687, 3.60746141728156]}}, {"type": "Feature", "properties": {"nombre": "Briceno", "depto": "BOYACA", "cod_dane": "151061000", "municipio": "Briceno", "tipo": "CABECERA"}, "geometry": {"type": "Point", "coordinates": [-73.926768634929, 5.69302193411405]}}, {"type": "Feature", "properties": {"nombre": "Buenavista", "depto": "BOYACA", "cod_dane": "151091000", "municipio": "Buenavista", "tipo": "CABECERA"}, "geometry": {"type": "Point", "coordinates": [-73.9460160772346, 5.51570633165898]}}, {"type": "Feature", "properties": {"nombre": "Busbanza", "depto": "BOYACA", "cod_dane": "151141000", "municipio": "Busbanza", "tipo": "CABECERA"}, "geometry": {"type": "Point", "coordinates": [-72.8874842077758, 5.83305129625923]}}, {"type": "Feature", "properties": {"nombre": "Caldas", "depto": "BOYACA", "cod_dane": "151311000", "municipio": "Caldas", "tipo": "CABECERA"}, "geometry": {"type": "Point", "coordinates": [-73.8687755993799, 5.55732698494624]}}, {"type": "Feature", "properties": {"nombre": "Campohermoso", "depto": "BOYACA", "cod_dane": "151351000", "municipio": "Campohermoso", "tipo": "CABECERA"}, "geometry": {"type": "Point", "coordinates": [-73.1073682841791, 5.03327139309453]}}, {"type": "Feature", "properties": {"nombre": "Cerinza", "depto": "BOYACA", "cod_dane": "151621000", "municipio": "Cerinza", "tipo": "CABECERA"}, "geometry": {"type": "Point", "coordinates": [-72.951342441776, 5.95871707403898]}}, {"type": "Feature", "properties": {"nombre": "Chameza Mayor", "depto": "BOYACA", "cod_dane": "154912002", "municipio": "Nobsa", "tipo": "VEREDA"}, "geometry": {"type": "Point", "coordinates": [-72.9136888107572, 5.76826618010464]}}, {"type": "Feature", "properties": {"nombre": "Cheva", "depto": "BOYACA", "cod_dane": "153682001", "municipio": "Jerico", "tipo": "VEREDA"}, "geometry": {"type": "Point", "coordinates": [-72.5498624360201, 6.15725615153598]}}, {"type": "Feature", "properties": {"nombre": "Chinavita", "depto": "BOYACA", "cod_dane": "151721000", "municipio": "Chinavita", "tipo": "CABECERA"}, "geometry": {"type": "Point", "coordinates": [-73.3721054575613, 5.17027517687246]}}, {"type": "Feature", "properties": {"nombre": "Chiquinquira", "depto": "BOYACA", "cod_dane": "151761000", "municipio": "Chiquinquira", "tipo": "CABECERA"}, "geometry": {"type": "Point", "coordinates": [-73.8210855830492, 5.61836027860998]}}, {"type": "Feature", "properties": {"nombre": "Chiquiza", "depto": "BOYACA", "cod_dane": "152321000", "municipio": "Chiquiza", "tipo": "CABECERA"}, "geometry": {"type": "Point", "coordinates": [-73.488353642806, 5.60817517515396]}}, {"type": "Feature", "properties": {"nombre": "Chiscas", "depto": "BOYACA", "cod_dane": "151801000", "municipio": "Chiscas", "tipo": "CABECERA"}, "geometry": {"type": "Point", "coordinates": [-72.503630548439, 6.5558729488941]}}, {"type": "Feature", "properties": {"nombre": "Chita", "depto": "BOYACA", "cod_dane": "151831000", "municipio": "Chita", "tipo": "CABECERA"}, "geometry": {"type": "Point", "coordinates": [-72.4747563093906, 6.1900970636557]}}, {"type": "Feature", "properties": {"nombre": "Chitaraque", "depto": "BOYACA", "cod_dane": "151851000", "municipio": "Chitaraque", "tipo": "CABECERA"}, "geometry": {"type": "Point", "coordinates": [-73.4503738361915, 6.03081431949172]}}, {"type": "Feature", "properties": {"nombre": "Chivata", "depto": "BOYACA", "cod_dane": "151871000", "municipio": "Chivata", "tipo": "CABECERA"}, "geometry": {"type": "Point", "coordinates": [-73.2860461443103, 5.56137562398429]}}, {"type": "Feature", "properties": {"nombre": "Chivor", "depto": "BOYACA", "cod_dane": "152361000", "municipio": "Chivor", "tipo": "CABECERA"}, "geometry": {"type": "Point", "coordinates": [-73.3717599676087, 4.89088342734478]}}, {"type": "Feature", "properties": {"nombre": "Cienega", "depto": "BOYACA", "cod_dane": "151891000", "municipio": "Cienega", "tipo": "CABECERA"}, "geometry": {"type": "Point", "coordinates": [-73.299171773965, 5.41225382627992]}}, {"type": "Feature", "properties": {"nombre": "Ciudadela Industrial", "depto": "BOYACA", "cod_dane": "152382012", "municipio": "Duitama", "tipo": "VEREDA"}, "geometry": {"type": "Point", "coordinates": [-73.0673613305733, 5.79515908929569]}}, {"type": "Feature", "properties": {"nombre": "Combita", "depto": "BOYACA", "cod_dane": "152041000", "municipio": "Combita", "tipo": "CABECERA"}, "geometry": {"type": "Point", "coordinates": [-73.3272043605414, 5.63719200761471]}}, {"type": "Feature", "properties": {"nombre": "Coper", "depto": "BOYACA", "cod_dane": "152121000", "municipio": "Coper", "tipo": "CABECERA"}, "geometry": {"type": "Point", "coordinates": [-74.0484960927953, 5.47825037116962]}}, {"type": "Feature", "properties": {"nombre": "Corrales", "depto": "BOYACA", "cod_dane": "152151000", "municipio": "Corrales", "tipo": "CABECERA"}, "geometry": {"type": "Point", "coordinates": [-72.8479356706862, 5.83145872961223]}}, {"type": "Feature", "properties": {"nombre": "Covarachia", "depto": "BOYACA", "cod_dane": "152181000", "municipio": "Covarachia", "tipo": "CABECERA"}, "geometry": {"type": "Point", "coordinates": [-72.7424870445895, 6.50313399564035]}}, {"type": "Feature", "properties": {"nombre": "Cubara", "depto": "BOYACA", "cod_dane": "152231000", "municipio": "Cubara", "tipo": "CABECERA"}, "geometry": {"type": "Point", "coordinates": [-72.1118114645061, 7.00457629374239]}}, {"type": "Feature", "properties": {"nombre": "Cucaita", "depto": "BOYACA", "cod_dane": "152241000", "municipio": "Cucaita", "tipo": "CABECERA"}, "geometry": {"type": "Point", "coordinates": [-73.4582159895553, 5.54596053767433]}}, {"type": "Feature", "properties": {"nombre": "Cuitiva", "depto": "BOYACA", "cod_dane": "152261000", "municipio": "Cuitiva", "tipo": "CABECERA"}, "geometry": {"type": "Point", "coordinates": [-72.9696134176647, 5.58312014971473]}}, {"type": "Feature", "properties": {"nombre": "Cusagui", "depto": "BOYACA", "cod_dane": "154032001", "municipio": "La Uvita", "tipo": "VEREDA"}, "geometry": {"type": "Point", "coordinates": [-72.5480675954125, 6.24813792438633]}}, {"type": "Feature", "properties": {"nombre": "Dicho", "depto": "BOYACA", "cod_dane": "154912003", "municipio": "Nobsa", "tipo": "VEREDA"}, "geometry": {"type": "Point", "coordinates": [-72.974763794402, 5.7890886424342]}}, {"type": "Feature", "properties": {"nombre": "Duitama", "depto": "BOYACA", "cod_dane": "152381000", "municipio": "Duitama", "tipo": "CABECERA"}, "geometry": {"type": "Point", "coordinates": [-73.0336559183398, 5.82552675434309]}}, {"type": "Feature", "properties": {"nombre": "El Barne", "depto": "BOYACA", "cod_dane": "152042001", "municipio": "Combita", "tipo": "VEREDA"}, "geometry": {"type": "Point", "coordinates": [-73.2731271630878, 5.67701388649211]}}, {"type": "Feature", "properties": {"nombre": "El Cocuy", "depto": "BOYACA", "cod_dane": "152441000", "municipio": "El Cocuy", "tipo": "CABECERA"}, "geometry": {"type": "Point", "coordinates": [-72.4485537579654, 6.4119735615385]}}, {"type": "Feature", "properties": {"nombre": "El Espino", "depto": "BOYACA", "cod_dane": "152481000", "municipio": "El Espino", "tipo": "CABECERA"}, "geometry": {"type": "Point", "coordinates": [-72.4998096186639, 6.48546902127587]}}, {"type": "Feature", "properties": {"nombre": "El Paraiso", "depto": "BOYACA", "cod_dane": "158062002", "municipio": "Tibasosa", "tipo": "VEREDA"}, "geometry": {"type": "Point", "coordinates": [-73.0591815759003, 5.76096759950164]}}, {"type": "Feature", "properties": {"nombre": "El Roble", "depto": "BOYACA", "cod_dane": "154072003", "municipio": "Villa de Leyva", "tipo": "VEREDA"}, "geometry": {"type": "Point", "coordinates": [-73.5131468270065, 5.66892518495742]}}, {"type": "Feature", "properties": {"nombre": "Firavitoba", "depto": "BOYACA", "cod_dane": "152721000", "municipio": "Firavitoba", "tipo": "CABECERA"}, "geometry": {"type": "Point", "coordinates": [-72.9971987436103, 5.67191714746225]}}, {"type": "Feature", "properties": {"nombre": "Floresta", "depto": "BOYACA", "cod_dane": "152761000", "municipio": "Floresta", "tipo": "CABECERA"}, "geometry": {"type": "Point", "coordinates": [-72.9219542065276, 5.86241759001847]}}, {"type": "Feature", "properties": {"nombre": "Gachantiva", "depto": "BOYACA", "cod_dane": "152931000", "municipio": "Gachantiva", "tipo": "CABECERA"}, "geometry": {"type": "Point", "coordinates": [-73.5526610912078, 5.75487705191065]}}, {"type": "Feature", "properties": {"nombre": "Galeras", "depto": "BOYACA", "cod_dane": "154912006", "municipio": "Nobsa", "tipo": "VEREDA"}, "geometry": {"type": "Point", "coordinates": [-72.9460988412957, 5.75477064936712]}}, {"type": "Feature", "properties": {"nombre": "Gameza", "depto": "BOYACA", "cod_dane": "152961000", "municipio": "Gameza", "tipo": "CABECERA"}, "geometry": {"type": "Point", "coordinates": [-72.8090322116308, 5.80523522388317]}}, {"type": "Feature", "properties": {"nombre": "Garagoa", "depto": "BOYACA", "cod_dane": "152991000", "municipio": "Garagoa", "tipo": "CABECERA"}, "geometry": {"type": "Point", "coordinates": [-73.3683017251485, 5.0851627379006]}}, {"type": "Feature", "properties": {"nombre": "Garavito", "depto": "BOYACA", "cod_dane": "156322001", "municipio": "Saboya", "tipo": "VEREDA"}, "geometry": {"type": "Point", "coordinates": [-73.7384042939896, 5.7574423146294]}}, {"type": "Feature", "properties": {"nombre": "Gibraltar", "depto": "BOYACA", "cod_dane": "152232011", "municipio": "Cubara", "tipo": "VEREDA"}, "geometry": {"type": "Point", "coordinates": [-72.1236654396724, 7.01422590054424]}}, {"type": "Feature", "properties": {"nombre": "Guacamayas", "depto": "BOYACA", "cod_dane": "153171000", "municipio": "Guacamayas", "tipo": "CABECERA"}, "geometry": {"type": "Point", "coordinates": [-72.5042207783226, 6.46254191523705]}}, {"type": "Feature", "properties": {"nombre": "Guateque", "depto": "BOYACA", "cod_dane": "153221000", "municipio": "Guateque", "tipo": "CABECERA"}, "geometry": {"type": "Point", "coordinates": [-73.4754120819661, 5.00995674489331]}}, {"type": "Feature", "properties": {"nombre": "Guayabal (Fatima)", "depto": "BOYACA", "cod_dane": "155992001", "municipio": "Ramiriqui", "tipo": "VEREDA"}, "geometry": {"type": "Point", "coordinates": [-73.3135061757122, 5.25688935269409]}}, {"type": "Feature", "properties": {"nombre": "Guayata", "depto": "BOYACA", "cod_dane": "153251000", "municipio": "Guayata", "tipo": "CABECERA"}, "geometry": {"type": "Point", "coordinates": [-73.4934899313991, 4.97025946547455]}}, {"type": "Feature", "properties": {"nombre": "Guican", "depto": "BOYACA", "cod_dane": "153321000", "municipio": "Guican", "tipo": "CABECERA"}, "geometry": {"type": "Point", "coordinates": [-72.4155577651618, 6.46579238846125]}}, {"type": "Feature", "properties": {"nombre": "Horizontes", "depto": "BOYACA", "cod_dane": "156672003", "municipio": "San Luis de Gaceno", "tipo": "VEREDA"}, "geometry": {"type": "Point", "coordinates": [-73.1411808352855, 4.72665117486987]}}, {"type": "Feature", "properties": {"nombre": "Iza", "depto": "BOYACA", "cod_dane": "153621000", "municipio": "Iza", "tipo": "CABECERA"}, "geometry": {"type": "Point", "coordinates": [-72.9838080645188, 5.61678973692066]}}, {"type": "Feature", "properties": {"nombre": "Jenesano", "depto": "BOYACA", "cod_dane": "153671000", "municipio": "Jenesano", "tipo": "CABECERA"}, "geometry": {"type": "Point", "coordinates": [-73.3673914553871, 5.38778273712702]}}, {"type": "Feature", "properties": {"nombre": "Jerico", "depto": "BOYACA", "cod_dane": "153681000", "municipio": "Jerico", "tipo": "CABECERA"}, "geometry": {"type": "Point", "coordinates": [-72.5739912035649, 6.14886329625034]}}, {"type": "Feature", "properties": {"nombre": "La Candelaria", "depto": "BOYACA", "cod_dane": "156002002", "municipio": "Raquira", "tipo": "VEREDA"}, "geometry": {"type": "Point", "coordinates": [-73.6088987364222, 5.52305625584796]}}, {"type": "Feature", "properties": {"nombre": "La Capilla", "depto": "BOYACA", "cod_dane": "153801000", "municipio": "La Capilla", "tipo": "CABECERA"}, "geometry": {"type": "Point", "coordinates": [-73.448287671777, 5.09823478499079]}}, {"type": "Feature", "properties": {"nombre": "La Ururia", "depto": "BOYACA", "cod_dane": "155142001", "municipio": "Paez", "tipo": "VEREDA"}, "geometry": {"type": "Point", "coordinates": [-73.0082095378595, 5.04277304257003]}}, {"type": "Feature", "properties": {"nombre": "La Uvita", "depto": "BOYACA", "cod_dane": "154031000", "municipio": "La Uvita", "tipo": "CABECERA"}, "geometry": {"type": "Point", "coordinates": [-72.5631040299102, 6.31981619302028]}}, {"type": "Feature", "properties": {"nombre": "La Victoria", "depto": "BOYACA", "cod_dane": "154011000", "municipio": "La Victoria", "tipo": "CABECERA"}, "geometry": {"type": "Point", "coordinates": [-74.2380578455886, 5.5263762883724]}}, {"type": "Feature", "properties": {"nombre": "Labranzagrande", "depto": "BOYACA", "cod_dane": "153771000", "municipio": "Labranzagrande", "tipo": "CABECERA"}, "geometry": {"type": "Point", "coordinates": [-72.5817376345192, 5.56549954812862]}}, {"type": "Feature", "properties": {"nombre": "Libertadores", "depto": "BOYACA", "cod_dane": "157902001", "municipio": "Tasco", "tipo": "VEREDA"}, "geometry": {"type": "Point", "coordinates": [-72.7477557004304, 5.98954966052776]}}, {"type": "Feature", "properties": {"nombre": "Llano De Alarcon", "depto": "BOYACA", "cod_dane": "152262001", "municipio": "Cuitiva", "tipo": "VEREDA"}, "geometry": {"type": "Point", "coordinates": [-72.915270055053, 5.60305063590545]}}, {"type": "Feature", "properties": {"nombre": "Los Cedros", "depto": "BOYACA", "cod_dane": "151352003", "municipio": "Campohermoso", "tipo": "VEREDA"}, "geometry": {"type": "Point", "coordinates": [-73.2067954986454, 5.01486935193232]}}, {"type": "Feature", "properties": {"nombre": "Los Pinos", "depto": "BOYACA", "cod_dane": "157552004", "municipio": "Socota", "tipo": "VEREDA"}, "geometry": {"type": "Point", "coordinates": [-72.5947864292379, 6.00090719042635]}}, {"type": "Feature", "properties": {"nombre": "Macanal", "depto": "BOYACA", "cod_dane": "154251000", "municipio": "Macanal", "tipo": "CABECERA"}, "geometry": {"type": "Point", "coordinates": [-73.3230729535795, 4.97511733135946]}}, {"type": "Feature", "properties": {"nombre": "Maripi", "depto": "BOYACA", "cod_dane": "154421000", "municipio": "Maripi", "tipo": "CABECERA"}, "geometry": {"type": "Point", "coordinates": [-74.0080359680131, 5.55252560767676]}}, {"type": "Feature", "properties": {"nombre": "Miraflores", "depto": "BOYACA", "cod_dane": "154551000", "municipio": "Miraflores", "tipo": "CABECERA"}, "geometry": {"type": "Point", "coordinates": [-73.1474310004941, 5.19920318804906]}}, {"type": "Feature", "properties": {"nombre": "Mongua", "depto": "BOYACA", "cod_dane": "154641000", "municipio": "Mongua", "tipo": "CABECERA"}, "geometry": {"type": "Point", "coordinates": [-72.8036714658617, 5.75575946651328]}}, {"type": "Feature", "properties": {"nombre": "Mongui", "depto": "BOYACA", "cod_dane": "154661000", "municipio": "Mongui", "tipo": "CABECERA"}, "geometry": {"type": "Point", "coordinates": [-72.8525504224387, 5.72660818046212]}}, {"type": "Feature", "properties": {"nombre": "Moniquira", "depto": "BOYACA", "cod_dane": "154691000", "municipio": "Moniquira", "tipo": "CABECERA"}, "geometry": {"type": "Point", "coordinates": [-73.5775663656649, 5.87948960666871]}}, {"type": "Feature", "properties": {"nombre": "Morca", "depto": "BOYACA", "cod_dane": "157592001", "municipio": "Sogamoso", "tipo": "VEREDA"}, "geometry": {"type": "Point", "coordinates": [-72.894143695279, 5.72379480480602]}}, {"type": "Feature", "properties": {"nombre": "Motavita", "depto": "BOYACA", "cod_dane": "154761000", "municipio": "Motavita", "tipo": "CABECERA"}, "geometry": {"type": "Point", "coordinates": [-73.3711353798037, 5.58040147466602]}}, {"type": "Feature", "properties": {"nombre": "Muzo", "depto": "BOYACA", "cod_dane": "154801000", "municipio": "Muzo", "tipo": "CABECERA"}, "geometry": {"type": "Point", "coordinates": [-74.1063691571521, 5.53483766652658]}}, {"type": "Feature", "properties": {"nombre": "Narino", "depto": "BOYACA", "cod_dane": "151312001", "municipio": "Caldas", "tipo": "VEREDA"}, "geometry": {"type": "Point", "coordinates": [-73.8659472535389, 5.59989226896283]}}, {"type": "Feature", "properties": {"nombre": "Nazareth", "depto": "BOYACA", "cod_dane": "154912007", "municipio": "Nobsa", "tipo": "VEREDA"}, "geometry": {"type": "Point", "coordinates": [-72.8989666298417, 5.77062238704111]}}, {"type": "Feature", "properties": {"nombre": "Nobsa", "depto": "BOYACA", "cod_dane": "154911000", "municipio": "Nobsa", "tipo": "CABECERA"}, "geometry": {"type": "Point", "coordinates": [-72.9412852075851, 5.77168955211566]}}, {"type": "Feature", "properties": {"nombre": "Nuevo Colon", "depto": "BOYACA", "cod_dane": "154941000", "municipio": "Nuevo Colon", "tipo": "CABECERA"}, "geometry": {"type": "Point", "coordinates": [-73.4606560181635, 5.35781087205355]}}, {"type": "Feature", "properties": {"nombre": "Oicata", "depto": "BOYACA", "cod_dane": "155001000", "municipio": "Oicata", "tipo": "CABECERA"}, "geometry": {"type": "Point", "coordinates": [-73.3115950407618, 5.59727378474697]}}, {"type": "Feature", "properties": {"nombre": "Otanche", "depto": "BOYACA", "cod_dane": "155071000", "municipio": "Otanche", "tipo": "CABECERA"}, "geometry": {"type": "Point", "coordinates": [-74.1847400175155, 5.66081294618328]}}, {"type": "Feature", "properties": {"nombre": "Otenga", "depto": "BOYACA", "cod_dane": "150922001", "municipio": "Beteitiva", "tipo": "VEREDA"}, "geometry": {"type": "Point", "coordinates": [-72.8686765779974, 5.91218090662846]}}, {"type": "Feature", "properties": {"nombre": "Pachavita", "depto": "BOYACA", "cod_dane": "155111000", "municipio": "Pachavita", "tipo": "CABECERA"}, "geometry": {"type": "Point", "coordinates": [-73.4007987495887, 5.14290055702123]}}, {"type": "Feature", "properties": {"nombre": "Paez", "depto": "BOYACA", "cod_dane": "155141000", "municipio": "Paez", "tipo": "CABECERA"}, "geometry": {"type": "Point", "coordinates": [-73.0556179809782, 5.10346425323832]}}, {"type": "Feature", "properties": {"nombre": "Paipa", "depto": "BOYACA", "cod_dane": "155161000", "municipio": "Paipa", "tipo": "CABECERA"}, "geometry": {"type": "Point", "coordinates": [-73.1199165750775, 5.78319608216085]}}, {"type": "Feature", "properties": {"nombre": "Pajarito", "depto": "BOYACA", "cod_dane": "155181000", "municipio": "Pajarito", "tipo": "CABECERA"}, "geometry": {"type": "Point", "coordinates": [-72.706161704026, 5.29582604752218]}}, {"type": "Feature", "properties": {"nombre": "Palermo", "depto": "BOYACA", "cod_dane": "155162001", "municipio": "Paipa", "tipo": "VEREDA"}, "geometry": {"type": "Point", "coordinates": [-73.1959300912534, 5.90074227521121]}}, {"type": "Feature", "properties": {"nombre": "Panqueba", "depto": "BOYACA", "cod_dane": "155221000", "municipio": "Panqueba", "tipo": "CABECERA"}, "geometry": {"type": "Point", "coordinates": [-72.4626177774386, 6.44615825211117]}}, {"type": "Feature", "properties": {"nombre": "Paramo", "depto": "BOYACA", "cod_dane": "158392001", "municipio": "Tutaza", "tipo": "VEREDA"}, "geometry": {"type": "Point", "coordinates": [-72.8709073119182, 6.10400971451106]}}, {"type": "Feature", "properties": {"nombre": "Pauna", "depto": "BOYACA", "cod_dane": "155311000", "municipio": "Pauna", "tipo": "CABECERA"}, "geometry": {"type": "Point", "coordinates": [-73.9820443362967, 5.65939452313014]}}, {"type": "Feature", "properties": {"nombre": "Paya", "depto": "BOYACA", "cod_dane": "155331000", "municipio": "Paya", "tipo": "CABECERA"}, "geometry": {"type": "Point", "coordinates": [-72.4256814694803, 5.62907797955551]}}, {"type": "Feature", "properties": {"nombre": "Paz De Rio", "depto": "BOYACA", "cod_dane": "155371000", "municipio": "Paz De Rio", "tipo": "CABECERA"}, "geometry": {"type": "Point", "coordinates": [-72.7519382312472, 5.99018051519154]}}, {"type": "Feature", "properties": {"nombre": "Pesca", "depto": "BOYACA", "cod_dane": "155421000", "municipio": "Pesca", "tipo": "CABECERA"}, "geometry": {"type": "Point", "coordinates": [-73.0544273054549, 5.56145502157291]}}, {"type": "Feature", "properties": {"nombre": "Pisba", "depto": "BOYACA", "cod_dane": "155501000", "municipio": "Pisba", "tipo": "CABECERA"}, "geometry": {"type": "Point", "coordinates": [-72.4878415679699, 5.7255980205572]}}, {"type": "Feature", "properties": {"nombre": "Pizarra", "depto": "BOYACA", "cod_dane": "155072004", "municipio": "Otanche", "tipo": "VEREDA"}, "geometry": {"type": "Point", "coordinates": [-74.2091584922464, 5.73146581852287]}}, {"type": "Feature", "properties": {"nombre": "Pueblo Las Mercedes", "depto": "BOYACA", "cod_dane": "151802005", "municipio": "Chiscas", "tipo": "VEREDA"}, "geometry": {"type": "Point", "coordinates": [-72.4749036307301, 6.57691099266327]}}, {"type": "Feature", "properties": {"nombre": "Puente Boyaca", "depto": "BOYACA", "cod_dane": "158612007", "municipio": "VentaquemadaPUENTE ", "tipo": "VEREDA"}, "geometry": {"type": "Point", "coordinates": [-73.4376385085303, 5.44896621818708]}}, {"type": "Feature", "properties": {"nombre": "Puerto Boyaca", "depto": "BOYACA", "cod_dane": "155721000", "municipio": "Puerto BoyacaPUERTO ", "tipo": "VEREDA"}, "geometry": {"type": "Point", "coordinates": [-74.585076060411, 5.97783916970781]}}, {"type": "Feature", "properties": {"nombre": "Punta Larga", "depto": "BOYACA", "cod_dane": "154912004", "municipio": "Nobsa", "tipo": "VEREDA"}, "geometry": {"type": "Point", "coordinates": [-72.9859179713633, 5.78462932526083]}}, {"type": "Feature", "properties": {"nombre": "Quipama", "depto": "BOYACA", "cod_dane": "155801000", "municipio": "Quipama", "tipo": "CABECERA"}, "geometry": {"type": "Point", "coordinates": [-74.1846633808041, 5.5258083014742]}}, {"type": "Feature", "properties": {"nombre": "Ramiriqui", "depto": "BOYACA", "cod_dane": "155991000", "municipio": "Ramiriqui", "tipo": "CABECERA"}, "geometry": {"type": "Point", "coordinates": [-73.3392652597568, 5.40415136676014]}}, {"type": "Feature", "properties": {"nombre": "Raquira", "depto": "BOYACA", "cod_dane": "156001000", "municipio": "Raquira", "tipo": "CABECERA"}, "geometry": {"type": "Point", "coordinates": [-73.6356505907322, 5.54174813382098]}}, {"type": "Feature", "properties": {"nombre": "Rondon", "depto": "BOYACA", "cod_dane": "156211000", "municipio": "Rondon", "tipo": "CABECERA"}, "geometry": {"type": "Point", "coordinates": [-73.211738536312, 5.35986446718497]}}, {"type": "Feature", "properties": {"nombre": "Saboya", "depto": "BOYACA", "cod_dane": "156321000", "municipio": "Saboya", "tipo": "CABECERA"}, "geometry": {"type": "Point", "coordinates": [-73.767898483019, 5.70100627932787]}}, {"type": "Feature", "properties": {"nombre": "Sachica", "depto": "BOYACA", "cod_dane": "156381000", "municipio": "Sachica", "tipo": "CABECERA"}, "geometry": {"type": "Point", "coordinates": [-73.5459055591961, 5.58590604366601]}}, {"type": "Feature", "properties": {"nombre": "Samaca", "depto": "BOYACA", "cod_dane": "156461000", "municipio": "Samaca", "tipo": "CABECERA"}, "geometry": {"type": "Point", "coordinates": [-73.4897287620872, 5.49553119017668]}}, {"type": "Feature", "properties": {"nombre": "San Carlos", "depto": "BOYACA", "cod_dane": "156672005", "municipio": "San Luis de Gaceno", "tipo": "VEREDA"}, "geometry": {"type": "Point", "coordinates": [-73.0679650245401, 4.75522894268997]}}, {"type": "Feature", "properties": {"nombre": "San Eduardo", "depto": "BOYACA", "cod_dane": "156601000", "municipio": "San Eduardo", "tipo": "CABECERA"}, "geometry": {"type": "Point", "coordinates": [-73.0806385268232, 5.22718213124075]}}, {"type": "Feature", "properties": {"nombre": "San Jose De Nazareth", "depto": "BOYACA", "cod_dane": "155072009", "municipio": "Otanche", "tipo": "VEREDA"}, "geometry": {"type": "Point", "coordinates": [-74.1213121599853, 5.81297108326953]}}, {"type": "Feature", "properties": {"nombre": "San Jose De Pare", "depto": "BOYACA", "cod_dane": "156641000", "municipio": "San Jose De Pare", "tipo": "CABECERA"}, "geometry": {"type": "Point", "coordinates": [-73.5505669058528, 6.0223515162299]}}, {"type": "Feature", "properties": {"nombre": "San Lorenzo Abajo", "depto": "BOYACA", "cod_dane": "152382008", "municipio": "Duitama", "tipo": "VEREDA"}, "geometry": {"type": "Point", "coordinates": [-73.0748208064848, 5.79043643469799]}}, {"type": "Feature", "properties": {"nombre": "San Luis De Gaceno", "depto": "BOYACA", "cod_dane": "156671000", "municipio": "San Luis de Gaceno", "tipo": "CABECERA"}, "geometry": {"type": "Point", "coordinates": [-73.1726172550844, 4.82227247250762]}}, {"type": "Feature", "properties": {"nombre": "San Martin", "depto": "BOYACA", "cod_dane": "156812006", "municipio": "San Pablo Borbur", "tipo": "VEREDA"}, "geometry": {"type": "Point", "coordinates": [-74.1290692678668, 5.66600074066879]}}, {"type": "Feature", "properties": {"nombre": "San Mateo", "depto": "BOYACA", "cod_dane": "156731000", "municipio": "San Mateo", "tipo": "CABECERA"}, "geometry": {"type": "Point", "coordinates": [-72.5584130181545, 6.40468611713977]}}, {"type": "Feature", "properties": {"nombre": "San Miguel De Sema", "depto": "BOYACA", "cod_dane": "156761000", "municipio": "San Miguel de Sema", "tipo": "CABECERA"}, "geometry": {"type": "Point", "coordinates": [-73.7254931502742, 5.52059999271771]}}, {"type": "Feature", "properties": {"nombre": "San Pablo De Borbur", "depto": "BOYACA", "cod_dane": "156811000", "municipio": "San Pablo Borbur", "tipo": "CABECERA"}, "geometry": {"type": "Point", "coordinates": [-74.0700529655638, 5.66187551850322]}}, {"type": "Feature", "properties": {"nombre": "San Pedro De Iguaque", "depto": "BOYACA", "cod_dane": "152322001", "municipio": "Chiquiza", "tipo": "VEREDA"}, "geometry": {"type": "Point", "coordinates": [-73.4530980425618, 5.64159537305514]}}, {"type": "Feature", "properties": {"nombre": "San Pedro De Muceno", "depto": "BOYACA", "cod_dane": "154252004", "municipio": "Macanal", "tipo": "VEREDA"}, "geometry": {"type": "Point", "coordinates": [-73.2454885428462, 5.0115356676104]}}, {"type": "Feature", "properties": {"nombre": "Santa Barbara", "depto": "BOYACA", "cod_dane": "156812005", "municipio": "San Pablo Borbur", "tipo": "VEREDA"}, "geometry": {"type": "Point", "coordinates": [-74.1606021381298, 5.65421260458443]}}, {"type": "Feature", "properties": {"nombre": "Santa Maria", "depto": "BOYACA", "cod_dane": "156901000", "municipio": "Santa Maria", "tipo": "CABECERA"}, "geometry": {"type": "Point", "coordinates": [-73.2663544765318, 4.86174484590905]}}, {"type": "Feature", "properties": {"nombre": "Santa Rosa", "depto": "BOYACA", "cod_dane": "154422001", "municipio": "Maripi", "tipo": "VEREDA"}, "geometry": {"type": "Point", "coordinates": [-74.0573538269246, 5.59033292558979]}}, {"type": "Feature", "properties": {"nombre": "Santa Rosa De Viterbo", "depto": "BOYACA", "cod_dane": "156931000", "municipio": "San Rosa Viterbo", "tipo": "CABECERA"}, "geometry": {"type": "Point", "coordinates": [-72.9859606535182, 5.87752110848399]}}, {"type": "Feature", "properties": {"nombre": "Santa Sofia", "depto": "BOYACA", "cod_dane": "156961000", "municipio": "Santa Sofia", "tipo": "CABECERA"}, "geometry": {"type": "Point", "coordinates": [-73.6055272511685, 5.71695264969214]}}, {"type": "Feature", "properties": {"nombre": "Santa Teresa", "depto": "BOYACA", "cod_dane": "157572002", "municipio": "Socha", "tipo": "VEREDA"}, "geometry": {"type": "Point", "coordinates": [-72.7455499969291, 5.99031133106874]}}, {"type": "Feature", "properties": {"nombre": "Santa Teresa", "depto": "BOYACA", "cod_dane": "158062003", "municipio": "Tibasosa", "tipo": "VEREDA"}, "geometry": {"type": "Point", "coordinates": [-72.9959713726385, 5.79580088375497]}}, {"type": "Feature", "properties": {"nombre": "Santa Teresa", "depto": "BOYACA", "cod_dane": "156672001", "municipio": "San Luis de Gaceno", "tipo": "VEREDA"}, "geometry": {"type": "Point", "coordinates": [-73.0889273732272, 4.92691134573995]}}, {"type": "Feature", "properties": {"nombre": "Santana", "depto": "BOYACA", "cod_dane": "156861000", "municipio": "Santana", "tipo": "CABECERA"}, "geometry": {"type": "Point", "coordinates": [-73.4856023414037, 6.06032796103357]}}, {"type": "Feature", "properties": {"nombre": "Sativa Viejo", "depto": "BOYACA", "cod_dane": "157202001", "municipio": "Sativanorte", "tipo": "VEREDA"}, "geometry": {"type": "Point", "coordinates": [-72.7085363769809, 6.11135075731895]}}, {"type": "Feature", "properties": {"nombre": "Sativanorte", "depto": "BOYACA", "cod_dane": "157201000", "municipio": "Sativanorte", "tipo": "CABECERA"}, "geometry": {"type": "Point", "coordinates": [-72.7116557537655, 6.13423493550981]}}, {"type": "Feature", "properties": {"nombre": "Sativasur", "depto": "BOYACA", "cod_dane": "157231000", "municipio": "Sativasur", "tipo": "CABECERA"}, "geometry": {"type": "Point", "coordinates": [-72.715624340983, 6.09639675157458]}}, {"type": "Feature", "properties": {"nombre": "Siachoque", "depto": "BOYACA", "cod_dane": "157401000", "municipio": "Siachoque", "tipo": "CABECERA"}, "geometry": {"type": "Point", "coordinates": [-73.2482251536375, 5.51419663852899]}}, {"type": "Feature", "properties": {"nombre": "Sirasi", "depto": "BOYACA", "cod_dane": "155142002", "municipio": "Paez", "tipo": "VEREDA"}, "geometry": {"type": "Point", "coordinates": [-72.9760639221885, 5.16614410544773]}}, {"type": "Feature", "properties": {"nombre": "Soata", "depto": "BOYACA", "cod_dane": "157531000", "municipio": "Soata", "tipo": "CABECERA"}, "geometry": {"type": "Point", "coordinates": [-72.6865623673117, 6.33615101507007]}}, {"type": "Feature", "properties": {"nombre": "Socha", "depto": "BOYACA", "cod_dane": "157571000", "municipio": "Socha", "tipo": "CABECERA"}, "geometry": {"type": "Point", "coordinates": [-72.6949053463744, 5.99983489829914]}}, {"type": "Feature", "properties": {"nombre": "Socota", "depto": "BOYACA", "cod_dane": "157551000", "municipio": "Socota", "tipo": "CABECERA"}, "geometry": {"type": "Point", "coordinates": [-72.6400519085665, 6.04408671135883]}}, {"type": "Feature", "properties": {"nombre": "Sogamoso", "depto": "BOYACA", "cod_dane": "157591000", "municipio": "Sogamoso", "tipo": "CABECERA"}, "geometry": {"type": "Point", "coordinates": [-72.9272747810169, 5.72952815487314]}}, {"type": "Feature", "properties": {"nombre": "Somondoco", "depto": "BOYACA", "cod_dane": "157611000", "municipio": "Somondoco", "tipo": "CABECERA"}, "geometry": {"type": "Point", "coordinates": [-73.4364862629552, 4.98886947729024]}}, {"type": "Feature", "properties": {"nombre": "Sora", "depto": "BOYACA", "cod_dane": "157621000", "municipio": "Sora", "tipo": "CABECERA"}, "geometry": {"type": "Point", "coordinates": [-73.4533571799651, 5.56969252905303]}}, {"type": "Feature", "properties": {"nombre": "Soraca", "depto": "BOYACA", "cod_dane": "157641000", "municipio": "Soraca", "tipo": "CABECERA"}, "geometry": {"type": "Point", "coordinates": [-73.3363064758716, 5.50397152423218]}}, {"type": "Feature", "properties": {"nombre": "Sotaquira", "depto": "BOYACA", "cod_dane": "157631000", "municipio": "Sotaquira", "tipo": "CABECERA"}, "geometry": {"type": "Point", "coordinates": [-73.2507057875265, 5.76802564711689]}}, {"type": "Feature", "properties": {"nombre": "Susacon", "depto": "BOYACA", "cod_dane": "157741000", "municipio": "Susacon", "tipo": "CABECERA"}, "geometry": {"type": "Point", "coordinates": [-72.6931252786695, 6.23381624643859]}}, {"type": "Feature", "properties": {"nombre": "Sutamarchan", "depto": "BOYACA", "cod_dane": "157761000", "municipio": "Sutamarchan", "tipo": "CABECERA"}, "geometry": {"type": "Point", "coordinates": [-73.62407829047, 5.62280296618012]}}, {"type": "Feature", "properties": {"nombre": "Sutatenza", "depto": "BOYACA", "cod_dane": "157781000", "municipio": "Sutatenza", "tipo": "CABECERA"}, "geometry": {"type": "Point", "coordinates": [-73.4555977945122, 5.02605678623355]}}, {"type": "Feature", "properties": {"nombre": "Tasco", "depto": "BOYACA", "cod_dane": "157901000", "municipio": "Tasco", "tipo": "CABECERA"}, "geometry": {"type": "Point", "coordinates": [-72.7847013441601, 5.91282380844155]}}, {"type": "Feature", "properties": {"nombre": "Tenza", "depto": "BOYACA", "cod_dane": "157981000", "municipio": "Tenza", "tipo": "CABECERA"}, "geometry": {"type": "Point", "coordinates": [-73.4251843492067, 5.07997645007191]}}, {"type": "Feature", "properties": {"nombre": "Tibana", "depto": "BOYACA", "cod_dane": "158041000", "municipio": "Tibana", "tipo": "CABECERA"}, "geometry": {"type": "Point", "coordinates": [-73.400219843696, 5.31904312505061]}}, {"type": "Feature", "properties": {"nombre": "Tibasosa", "depto": "BOYACA", "cod_dane": "158061000", "municipio": "Tibasosa", "tipo": "CABECERA"}, "geometry": {"type": "Point", "coordinates": [-73.0032702133143, 5.75015618185499]}}, {"type": "Feature", "properties": {"nombre": "Tierra Negra", "depto": "BOYACA", "cod_dane": "158612008", "municipio": "Ventaquemada", "tipo": "VEREDA"}, "geometry": {"type": "Point", "coordinates": [-73.4547169027705, 5.42783461175076]}}, {"type": "Feature", "properties": {"nombre": "Tinjaca", "depto": "BOYACA", "cod_dane": "158081000", "municipio": "Tinjaca", "tipo": "CABECERA"}, "geometry": {"type": "Point", "coordinates": [-73.6506585474725, 5.58191868755152]}}, {"type": "Feature", "properties": {"nombre": "Tipacoque", "depto": "BOYACA", "cod_dane": "158101000", "municipio": "Tipacoque", "tipo": "CABECERA"}, "geometry": {"type": "Point", "coordinates": [-72.6957440840811, 6.42249755051631]}}, {"type": "Feature", "properties": {"nombre": "Tobasia", "depto": "BOYACA", "cod_dane": "152762001", "municipio": "Floresta", "tipo": "VEREDA"}, "geometry": {"type": "Point", "coordinates": [-72.9478748711876, 5.85955654048349]}}, {"type": "Feature", "properties": {"nombre": "Toca", "depto": "BOYACA", "cod_dane": "158141000", "municipio": "Toca", "tipo": "CABECERA"}, "geometry": {"type": "Point", "coordinates": [-73.1879636564547, 5.56805703747291]}}, {"type": "Feature", "properties": {"nombre": "Togui", "depto": "BOYACA", "cod_dane": "158161000", "municipio": "Togui", "tipo": "CABECERA"}, "geometry": {"type": "Point", "coordinates": [-73.5168682343363, 5.94061963621064]}}, {"type": "Feature", "properties": {"nombre": "Topaga", "depto": "BOYACA", "cod_dane": "158201000", "municipio": "Topaga", "tipo": "CABECERA"}, "geometry": {"type": "Point", "coordinates": [-72.8356268935458, 5.77173203546477]}}, {"type": "Feature", "properties": {"nombre": "Tota", "depto": "BOYACA", "cod_dane": "158221000", "municipio": "Tota", "tipo": "CABECERA"}, "geometry": {"type": "Point", "coordinates": [-72.9896740986505, 5.56327297681147]}}, {"type": "Feature", "properties": {"nombre": "Trinidad", "depto": "BOYACA", "cod_dane": "152382011", "municipio": "Duitama", "tipo": "VEREDA"}, "geometry": {"type": "Point", "coordinates": [-73.0812417414175, 5.82874960130668]}}, {"type": "Feature", "properties": {"nombre": "Tunja", "depto": "BOYACA", "cod_dane": "150011000", "municipio": "Tunja", "tipo": "CABECERA"}, "geometry": {"type": "Point", "coordinates": [-73.3594854881217, 5.54498195952031]}}, {"type": "Feature", "properties": {"nombre": "Tunungua", "depto": "BOYACA", "cod_dane": "158321000", "municipio": "Tunungua", "tipo": "CABECERA"}, "geometry": {"type": "Point", "coordinates": [-73.9365002032963, 5.73326559397311]}}, {"type": "Feature", "properties": {"nombre": "Turmeque", "depto": "BOYACA", "cod_dane": "158351000", "municipio": "Turmeque", "tipo": "CABECERA"}, "geometry": {"type": "Point", "coordinates": [-73.4948583083843, 5.32606663625095]}}, {"type": "Feature", "properties": {"nombre": "Tuta", "depto": "BOYACA", "cod_dane": "158371000", "municipio": "Tuta", "tipo": "CABECERA"}, "geometry": {"type": "Point", "coordinates": [-73.2317447329767, 5.69297482317465]}}, {"type": "Feature", "properties": {"nombre": "Tutaza", "depto": "BOYACA", "cod_dane": "158391000", "municipio": "Tutaza", "tipo": "CABECERA"}, "geometry": {"type": "Point", "coordinates": [-72.8598420639534, 6.03530501823058]}}, {"type": "Feature", "properties": {"nombre": "Ucuanga", "depto": "BOYACA", "cod_dane": "154912005", "municipio": "Nobsa", "tipo": "VEREDA"}, "geometry": {"type": "Point", "coordinates": [-72.9776742857269, 5.7762512186377]}}, {"type": "Feature", "properties": {"nombre": "Umbita", "depto": "BOYACA", "cod_dane": "158421000", "municipio": "Umbita", "tipo": "CABECERA"}, "geometry": {"type": "Point", "coordinates": [-73.4603573751722, 5.2204901311768]}}, {"type": "Feature", "properties": {"nombre": "Ventaquemada", "depto": "BOYACA", "cod_dane": "158611000", "municipio": "Ventaquemada", "tipo": "CABECERA"}, "geometry": {"type": "Point", "coordinates": [-73.5239547738036, 5.37179326892921]}}, {"type": "Feature", "properties": {"nombre": "Villa De Leyva", "depto": "BOYACA", "cod_dane": "154071000", "municipio": "Villa de Leyva", "tipo": "CABECERA"}, "geometry": {"type": "Point", "coordinates": [-73.5301073773394, 5.63945849929256]}}, {"type": "Feature", "properties": {"nombre": "Zulia", "depto": "BOYACA", "cod_dane": "154422002", "municipio": "Maripi", "tipo": "VEREDA"}, "geometry": {"type": "Point", "coordinates": [-74.0481121908017, 5.61779967765816]}}, {"type": "Feature", "properties": {"nombre": "Viracacha", "depto": "BOYACA", "cod_dane": "158791000", "municipio": "Viracacha", "tipo": "CABECERA"}, "geometry": {"type": "Point", "coordinates": [-73.3001552212138, 5.43974103006788]}}, {"type": "Feature", "properties": {"nombre": "Zetaquira", "depto": "BOYACA", "cod_dane": "158971000", "municipio": "Zetaquira", "tipo": "CABECERA"}, "geometry": {"type": "Point", "coordinates": [-73.1748084831324, 5.28654729587263]}}]}