{"type": "FeatureCollection", "name": "centros_poblados_CHOCO", "crs": {"type": "name", "properties": {"name": "urn:ogc:def:crs:OGC:1.3:CRS84"}}, "features": [{"type": "Feature", "properties": {"nombre": "Medio Atrato", "depto": "CHOCO", "provincia": "ATRATO", "cod_dane": "274252003", "municipio": "Medio Atrato", "tipo": "VEREDA"}, "geometry": {"type": "Point", "coordinates": [-76.8115383817592, 5.8949673647325]}}, {"type": "Feature", "properties": {"nombre": "Acand\u00ed", "depto": "CHOCO", "provincia": "DARIEN", "cod_dane": "270061000", "municipio": "Acand\u00ed", "tipo": "CABECERA"}, "geometry": {"type": "Point", "coordinates": [-77.2819557285769, 8.51369869531531]}}, {"type": "Feature", "properties": {"nombre": "Aguacate", "depto": "CHOCO", "provincia": "PAC\u00cdFICO NORTE", "cod_dane": "273722001", "municipio": "Jurad\u00f3", "tipo": "VEREDA"}, "geometry": {"type": "Point", "coordinates": [-77.6727026471191, 6.87902390701682]}}, {"type": "Feature", "properties": {"nombre": "Andagoya", "depto": "CHOCO", "provincia": "SAN JUAN", "cod_dane": "273612001", "municipio": "Itsmina", "tipo": "VEREDA"}, "geometry": {"type": "Point", "coordinates": [-76.6988605274232, 5.09941477696229]}}, {"type": "Feature", "properties": {"nombre": "Apartado", "depto": "CHOCO", "provincia": "PAC\u00cdFICO NORTE", "cod_dane": "274952007", "municipio": "Nuqu\u00ed", "tipo": "VEREDA"}, "geometry": {"type": "Point", "coordinates": [-77.4612857222372, 5.59962611972398]}}, {"type": "Feature", "properties": {"nombre": "Arusi", "depto": "CHOCO", "provincia": "PAC\u00cdFICO NORTE", "cod_dane": "274952001", "municipio": "Nuqu\u00ed", "tipo": "VEREDA"}, "geometry": {"type": "Point", "coordinates": [-77.4774549755582, 5.59815997231654]}}, {"type": "Feature", "properties": {"nombre": "Bagad\u00f3", "depto": "CHOCO", "provincia": "ATRATO", "cod_dane": "270731000", "municipio": "Bagad\u00f3", "tipo": "CABECERA"}, "geometry": {"type": "Point", "coordinates": [-76.4193038859979, 5.41452040721792]}}, {"type": "Feature", "properties": {"nombre": "Balboa", "depto": "CHOCO", "provincia": "DARIEN", "cod_dane": "278002001", "municipio": "Ungu\u00eda", "tipo": "VEREDA"}, "geometry": {"type": "Point", "coordinates": [-77.14371027179, 8.28669472186071]}}, {"type": "Feature", "properties": {"nombre": "Bebedo", "depto": "CHOCO", "provincia": "SAN JUAN", "cod_dane": "273612003", "municipio": "Itsmina", "tipo": "VEREDA"}, "geometry": {"type": "Point", "coordinates": [-76.8304904735848, 4.93670084418791]}}, {"type": "Feature", "properties": {"nombre": "Bojay\u00e1", "depto": "CHOCO", "provincia": "ATRATO", "cod_dane": "270991000", "municipio": "Bojay\u00e1", "tipo": "CABECERA"}, "geometry": {"type": "Point", "coordinates": [-76.8984268470458, 6.57178801842639]}}, {"type": "Feature", "properties": {"nombre": "Medio Atrato", "depto": "CHOCO", "provincia": "ATRATO", "cod_dane": "274251000", "municipio": "Medio Atrato", "tipo": "CABECERA"}, "geometry": {"type": "Point", "coordinates": [-76.7844984417198, 5.99716746574038]}}, {"type": "Feature", "properties": {"nombre": "Betecito", "depto": "CHOCO", "provincia": "DARIEN", "cod_dane": "278002007", "municipio": "Ungu\u00eda", "tipo": "VEREDA"}, "geometry": {"type": "Point", "coordinates": [-77.0405132307357, 7.87918054559545]}}, {"type": "Feature", "properties": {"nombre": "Boca De Ame", "depto": "CHOCO", "provincia": "ATRATO", "cod_dane": "274252001", "municipio": "Medio Atrato", "tipo": "VEREDA"}, "geometry": {"type": "Point", "coordinates": [-76.7654916489261, 6.05526959642758]}}, {"type": "Feature", "properties": {"nombre": "Boca De Bebara", "depto": "CHOCO", "provincia": "ATRATO", "cod_dane": "274252002", "municipio": "Medio Atrato", "tipo": "VEREDA"}, "geometry": {"type": "Point", "coordinates": [-76.6959242568521, 6.12741428202045]}}, {"type": "Feature", "properties": {"nombre": "Medio Baud\u00f3", "depto": "CHOCO", "provincia": "PAC\u00cdFICO SUR", "cod_dane": "274301000", "municipio": "Medio Baud\u00f3", "tipo": "CABECERA"}, "geometry": {"type": "Point", "coordinates": [-77.0555050606018, 5.05363585209036]}}, {"type": "Feature", "properties": {"nombre": "Bocas De Curbarado", "depto": "CHOCO", "provincia": "DARIEN", "cod_dane": "276152001", "municipio": "Riosucio", "tipo": "VEREDA"}, "geometry": {"type": "Point", "coordinates": [-76.9746352835777, 7.1601972256908]}}, {"type": "Feature", "properties": {"nombre": "Boraudo", "depto": "CHOCO", "provincia": "ATRATO", "cod_dane": "274132007", "municipio": "Llor\u00f3", "tipo": "VEREDA"}, "geometry": {"type": "Point", "coordinates": [-76.5773721708656, 5.51481047006942]}}, {"type": "Feature", "properties": {"nombre": "Calle Larga", "depto": "CHOCO", "provincia": "ATRATO", "cod_dane": "274132012", "municipio": "Llor\u00f3", "tipo": "VEREDA"}, "geometry": {"type": "Point", "coordinates": [-76.4720883443006, 5.45003946202618]}}, {"type": "Feature", "properties": {"nombre": "Capurgana", "depto": "CHOCO", "provincia": "DARIEN", "cod_dane": "270062003", "municipio": "Acand\u00ed", "tipo": "VEREDA"}, "geometry": {"type": "Point", "coordinates": [-77.3457188443507, 8.63672444632725]}}, {"type": "Feature", "properties": {"nombre": "Carmelo", "depto": "CHOCO", "provincia": "SAN JUAN", "cod_dane": "277872002", "municipio": "Tad\u00f3", "tipo": "VEREDA"}, "geometry": {"type": "Point", "coordinates": [-76.3965554065835, 5.32646621466592]}}, {"type": "Feature", "properties": {"nombre": "Certegui", "depto": "CHOCO", "provincia": "SAN JUAN", "cod_dane": "277872003", "municipio": "Tad\u00f3", "tipo": "VEREDA"}, "geometry": {"type": "Point", "coordinates": [-76.6119048198993, 5.37473058354951]}}, {"type": "Feature", "properties": {"nombre": "Chococito", "depto": "CHOCO", "provincia": "SUR", "cod_dane": "762752004VALLEFlorida", "municipio": "Florida", "tipo": "VEREDA"}, "geometry": {"type": "Point", "coordinates": [-76.3025721635733, 3.28975876772259]}}, {"type": "Feature", "properties": {"nombre": "Condoto", "depto": "CHOCO", "provincia": "SAN JUAN", "cod_dane": "272051000", "municipio": "Condoto", "tipo": "CABECERA"}, "geometry": {"type": "Point", "coordinates": [-76.6534138019316, 5.0944977083095]}}, {"type": "Feature", "properties": {"nombre": "Copoma", "depto": "CHOCO", "provincia": "PAC\u00cdFICO SUR", "cod_dane": "272502001", "municipio": "El Litoral Del San Juan", "tipo": "VEREDA"}, "geometry": {"type": "Point", "coordinates": [-77.0115515015544, 4.3468086102721]}}, {"type": "Feature", "properties": {"nombre": "Coqui", "depto": "CHOCO", "provincia": "PAC\u00cdFICO NORTE", "cod_dane": "274952002", "municipio": "Nuqu\u00ed", "tipo": "VEREDA"}, "geometry": {"type": "Point", "coordinates": [-77.3644365533925, 5.61054148108365]}}, {"type": "Feature", "properties": {"nombre": "Cucurrupi", "depto": "CHOCO", "provincia": "PAC\u00cdFICO SUR", "cod_dane": "272502002", "municipio": "El Litoral Del San Juan", "tipo": "VEREDA"}, "geometry": {"type": "Point", "coordinates": [-77.0074592808998, 4.41576420140736]}}, {"type": "Feature", "properties": {"nombre": "Cuevita", "depto": "CHOCO", "provincia": "PAC\u00cdFICO SUR", "cod_dane": "270772005", "municipio": "Bajo Baud\u00f3", "tipo": "VEREDA"}, "geometry": {"type": "Point", "coordinates": [-77.4239319881188, 5.44921336884041]}}, {"type": "Feature", "properties": {"nombre": "Cupica", "depto": "CHOCO", "provincia": "PAC\u00cdFICO NORTE", "cod_dane": "270752001", "municipio": "Bah\u00eda Solano", "tipo": "VEREDA"}, "geometry": {"type": "Point", "coordinates": [-77.477188765066, 6.70704923830154]}}, {"type": "Feature", "properties": {"nombre": "Curiche", "depto": "CHOCO", "provincia": "PAC\u00cdFICO NORTE", "cod_dane": "273722003", "municipio": "Jurad\u00f3", "tipo": "VEREDA"}, "geometry": {"type": "Point", "coordinates": [-77.7080242792649, 7.05415086759138]}}, {"type": "Feature", "properties": {"nombre": "Domingodo", "depto": "CHOCO", "provincia": "DARIEN", "cod_dane": "276152003", "municipio": "Riosucio", "tipo": "VEREDA"}, "geometry": {"type": "Point", "coordinates": [-77.0365309281479, 7.18125999737992]}}, {"type": "Feature", "properties": {"nombre": "Dona Josefa", "depto": "CHOCO", "provincia": "ATRATO", "cod_dane": "270502002", "municipio": "Atrato", "tipo": "VEREDA"}, "geometry": {"type": "Point", "coordinates": [-76.6511553520539, 5.5542522829904]}}, {"type": "Feature", "properties": {"nombre": "El Arenal", "depto": "CHOCO", "provincia": "ATRATO", "cod_dane": "270502001", "municipio": "Atrato", "tipo": "VEREDA"}, "geometry": {"type": "Point", "coordinates": [-76.6186080320558, 5.53200410089507]}}, {"type": "Feature", "properties": {"nombre": "El Barrancon", "depto": "CHOCO", "provincia": "SAN JUAN", "cod_dane": "274912011", "municipio": "N\u00f3vita", "tipo": "VEREDA"}, "geometry": {"type": "Point", "coordinates": [-76.6583685611257, 4.76302626613497]}}, {"type": "Feature", "properties": {"nombre": "El Cajon", "depto": "CHOCO", "provincia": "SAN JUAN", "cod_dane": "274912001", "municipio": "N\u00f3vita", "tipo": "VEREDA"}, "geometry": {"type": "Point", "coordinates": [-76.6380873376611, 4.84979192557283]}}, {"type": "Feature", "properties": {"nombre": "El Carmen De Atrato", "depto": "CHOCO", "provincia": "ATRATO", "cod_dane": "272451000", "municipio": "El Carmen De Atrato", "tipo": "CABECERA"}, "geometry": {"type": "Point", "coordinates": [-76.1454452497541, 5.90281181725671]}}, {"type": "Feature", "properties": {"nombre": "El Dos (San Rafael)", "depto": "CHOCO", "provincia": "SAN JUAN", "cod_dane": "278102003", "municipio": "Union Panamericana", "tipo": "VEREDA"}, "geometry": {"type": "Point", "coordinates": [-76.6624426292265, 5.23489123437817]}}, {"type": "Feature", "properties": {"nombre": "El Llano", "depto": "CHOCO", "provincia": "ATRATO", "cod_dane": "274252004", "municipio": "Medio Atrato", "tipo": "VEREDA"}, "geometry": {"type": "Point", "coordinates": [-76.6158726339883, 6.10443593255634]}}, {"type": "Feature", "properties": {"nombre": "El Llano", "depto": "CHOCO", "provincia": "ATRATO", "cod_dane": "274132008", "municipio": "Llor\u00f3", "tipo": "VEREDA"}, "geometry": {"type": "Point", "coordinates": [-76.4370845538282, 5.47580320644116]}}, {"type": "Feature", "properties": {"nombre": "El Siete 2", "depto": "CHOCO", "provincia": "ATRATO", "cod_dane": "272452006", "municipio": "El Carmen De Atrato", "tipo": "VEREDA"}, "geometry": {"type": "Point", "coordinates": [-76.1519909554181, 5.87019391465091]}}, {"type": "Feature", "properties": {"nombre": "El Tambito", "depto": "CHOCO", "provincia": "SAN JUAN", "cod_dane": "274912010", "municipio": "N\u00f3vita", "tipo": "VEREDA"}, "geometry": {"type": "Point", "coordinates": [-76.4993194873592, 4.96695900245148]}}, {"type": "Feature", "properties": {"nombre": "El Tapon", "depto": "CHOCO", "provincia": "SAN JUAN", "cod_dane": "277872004", "municipio": "Tad\u00f3", "tipo": "VEREDA"}, "geometry": {"type": "Point", "coordinates": [-76.5138965844224, 5.28070801158071]}}, {"type": "Feature", "properties": {"nombre": "El Tigre", "depto": "CHOCO", "provincia": "ATRATO", "cod_dane": "270992015", "municipio": "Bojay\u00e1", "tipo": "VEREDA"}, "geometry": {"type": "Point", "coordinates": [-76.7920920179313, 6.35522383783355]}}, {"type": "Feature", "properties": {"nombre": "El Tigre", "depto": "CHOCO", "provincia": "SAN JUAN", "cod_dane": "274912002", "municipio": "N\u00f3vita", "tipo": "VEREDA"}, "geometry": {"type": "Point", "coordinates": [-76.5352846520114, 4.94311557123383]}}, {"type": "Feature", "properties": {"nombre": "El Valle", "depto": "CHOCO", "provincia": "PAC\u00cdFICO NORTE", "cod_dane": "270752002", "municipio": "Bah\u00eda Solano", "tipo": "VEREDA"}, "geometry": {"type": "Point", "coordinates": [-77.4308724685302, 6.10720878313861]}}, {"type": "Feature", "properties": {"nombre": "Gilgal", "depto": "CHOCO", "provincia": "DARIEN", "cod_dane": "278002002", "municipio": "Ungu\u00eda", "tipo": "VEREDA"}, "geometry": {"type": "Point", "coordinates": [-77.085397705281, 8.19399847867542]}}, {"type": "Feature", "properties": {"nombre": "Guaitado", "depto": "CHOCO", "provincia": "ATRATO", "cod_dane": "274132002", "municipio": "Llor\u00f3", "tipo": "VEREDA"}, "geometry": {"type": "Point", "coordinates": [-76.493931364766, 5.5487600821058]}}, {"type": "Feature", "properties": {"nombre": "Guarin", "depto": "CHOCO", "provincia": "PAC\u00cdFICO NORTE", "cod_dane": "273722006", "municipio": "Jurad\u00f3", "tipo": "VEREDA"}, "geometry": {"type": "Point", "coordinates": [-77.6588997135374, 6.97234926912244]}}, {"type": "Feature", "properties": {"nombre": "Guayabal", "depto": "CHOCO", "provincia": "ATRATO", "cod_dane": "270012016", "municipio": "Quibd\u00f3", "tipo": "VEREDA"}, "geometry": {"type": "Point", "coordinates": [-76.6464404130941, 5.74014563593621]}}, {"type": "Feature", "properties": {"nombre": "Huina", "depto": "CHOCO", "provincia": "PAC\u00cdFICO NORTE", "cod_dane": "270752004", "municipio": "Bah\u00eda Solano", "tipo": "VEREDA"}, "geometry": {"type": "Point", "coordinates": [-77.4604084393217, 6.27494734932659]}}, {"type": "Feature", "properties": {"nombre": "Isla De Palacios", "depto": "CHOCO", "provincia": "ATRATO", "cod_dane": "270992003", "municipio": "Bojay\u00e1", "tipo": "VEREDA"}, "geometry": {"type": "Point", "coordinates": [-76.928903324591, 6.83612366504698]}}, {"type": "Feature", "properties": {"nombre": "Itsmina", "depto": "CHOCO", "provincia": "SAN JUAN", "cod_dane": "273611000", "municipio": "Itsmina", "tipo": "CABECERA"}, "geometry": {"type": "Point", "coordinates": [-76.6899908357147, 5.15950514991985]}}, {"type": "Feature", "properties": {"nombre": "Jovi", "depto": "CHOCO", "provincia": "PAC\u00cdFICO NORTE", "cod_dane": "274952008", "municipio": "Nuqu\u00ed", "tipo": "VEREDA"}, "geometry": {"type": "Point", "coordinates": [-77.38566521717, 5.61778921491807]}}, {"type": "Feature", "properties": {"nombre": "Jurad\u00f3", "depto": "CHOCO", "provincia": "PAC\u00cdFICO NORTE", "cod_dane": "273721000", "municipio": "Jurad\u00f3", "tipo": "CABECERA"}, "geometry": {"type": "Point", "coordinates": [-77.7657547443621, 7.10569212008782]}}, {"type": "Feature", "properties": {"nombre": "Jurubida", "depto": "CHOCO", "provincia": "PAC\u00cdFICO NORTE", "cod_dane": "274952003", "municipio": "Nuqu\u00ed", "tipo": "VEREDA"}, "geometry": {"type": "Point", "coordinates": [-77.280366592029, 5.84671844784608]}}, {"type": "Feature", "properties": {"nombre": "La Grande", "depto": "CHOCO", "provincia": "DARIEN", "cod_dane": "276152005", "municipio": "Riosucio", "tipo": "VEREDA"}, "geometry": {"type": "Point", "coordinates": [-76.8915173043026, 7.04080066770025]}}, {"type": "Feature", "properties": {"nombre": "La Honda", "depto": "CHOCO", "provincia": "DARIEN", "cod_dane": "276152006", "municipio": "Riosucio", "tipo": "VEREDA"}, "geometry": {"type": "Point", "coordinates": [-77.1287454850648, 7.5793227650878]}}, {"type": "Feature", "properties": {"nombre": "La Sierra", "depto": "CHOCO", "provincia": "ATRATO", "cod_dane": "270732005", "municipio": "Bagad\u00f3", "tipo": "VEREDA"}, "geometry": {"type": "Point", "coordinates": [-76.3616300165482, 5.4061401586395]}}, {"type": "Feature", "properties": {"nombre": "La Vuelta", "depto": "CHOCO", "provincia": "ATRATO", "cod_dane": "274132003", "municipio": "Llor\u00f3", "tipo": "VEREDA"}, "geometry": {"type": "Point", "coordinates": [-76.5477300514647, 5.46357859847221]}}, {"type": "Feature", "properties": {"nombre": "Union Panamericana", "depto": "CHOCO", "provincia": "SAN JUAN", "cod_dane": "278101000", "municipio": "Union Panamericana", "tipo": "CABECERA"}, "geometry": {"type": "Point", "coordinates": [-76.6326831835868, 5.28412768113104]}}, {"type": "Feature", "properties": {"nombre": "Llor\u00f3", "depto": "CHOCO", "provincia": "ATRATO", "cod_dane": "274131000", "municipio": "Llor\u00f3", "tipo": "CABECERA"}, "geometry": {"type": "Point", "coordinates": [-76.5458646764223, 5.50276376749154]}}, {"type": "Feature", "properties": {"nombre": "Loma De Bojaya", "depto": "CHOCO", "provincia": "ATRATO", "cod_dane": "270992002", "municipio": "Bojay\u00e1", "tipo": "VEREDA"}, "geometry": {"type": "Point", "coordinates": [-76.9757699549145, 6.52400263229756]}}, {"type": "Feature", "properties": {"nombre": "Marriaga", "depto": "CHOCO", "provincia": "DARIEN", "cod_dane": "278002008", "municipio": "Ungu\u00eda", "tipo": "VEREDA"}, "geometry": {"type": "Point", "coordinates": [-76.9621931027204, 8.10860831359147]}}, {"type": "Feature", "properties": {"nombre": "Mesopotamia", "depto": "CHOCO", "provincia": "ATRATO", "cod_dane": "270992013", "municipio": "Bojay\u00e1", "tipo": "VEREDA"}, "geometry": {"type": "Point", "coordinates": [-77.0280572327434, 6.81192642584546]}}, {"type": "Feature", "properties": {"nombre": "Montano", "depto": "CHOCO", "provincia": "DARIEN", "cod_dane": "276152031", "municipio": "Riosucio", "tipo": "VEREDA"}, "geometry": {"type": "Point", "coordinates": [-76.9691449565549, 6.96913012075508]}}, {"type": "Feature", "properties": {"nombre": "Bah\u00eda Solano", "depto": "CHOCO", "provincia": "PAC\u00cdFICO NORTE", "cod_dane": "270751000", "municipio": "Bah\u00eda Solano", "tipo": "CABECERA"}, "geometry": {"type": "Point", "coordinates": [-77.4070904122192, 6.2272512705406]}}, {"type": "Feature", "properties": {"nombre": "Nabuga", "depto": "CHOCO", "provincia": "PAC\u00cdFICO NORTE", "cod_dane": "270752007", "municipio": "Bah\u00eda Solano", "tipo": "VEREDA"}, "geometry": {"type": "Point", "coordinates": [-77.3647256718265, 6.39501816301559]}}, {"type": "Feature", "properties": {"nombre": "Napipi", "depto": "CHOCO", "provincia": "ATRATO", "cod_dane": "270992005", "municipio": "Bojay\u00e1", "tipo": "VEREDA"}, "geometry": {"type": "Point", "coordinates": [-76.9423632256168, 6.6675049755827]}}, {"type": "Feature", "properties": {"nombre": "Nipordu", "depto": "CHOCO", "provincia": "ATRATO", "cod_dane": "274132009", "municipio": "Llor\u00f3", "tipo": "VEREDA"}, "geometry": {"type": "Point", "coordinates": [-76.4594216414186, 5.49941934750456]}}, {"type": "Feature", "properties": {"nombre": "N\u00f3vita", "depto": "CHOCO", "provincia": "SAN JUAN", "cod_dane": "274911000", "municipio": "N\u00f3vita", "tipo": "CABECERA"}, "geometry": {"type": "Point", "coordinates": [-76.610402483463, 4.95890283741246]}}, {"type": "Feature", "properties": {"nombre": "Nuqu\u00ed", "depto": "CHOCO", "provincia": "PAC\u00cdFICO NORTE", "cod_dane": "274951000", "municipio": "Nuqu\u00ed", "tipo": "CABECERA"}, "geometry": {"type": "Point", "coordinates": [-77.2698983335349, 5.71199360536985]}}, {"type": "Feature", "properties": {"nombre": "Ogodo", "depto": "CHOCO", "provincia": "ATRATO", "cod_dane": "274132010", "municipio": "Llor\u00f3", "tipo": "VEREDA"}, "geometry": {"type": "Point", "coordinates": [-76.5031482001613, 5.45325419601476]}}, {"type": "Feature", "properties": {"nombre": "Orpua", "depto": "CHOCO", "provincia": "PAC\u00cdFICO SUR", "cod_dane": "270772008", "municipio": "Bajo Baud\u00f3", "tipo": "VEREDA"}, "geometry": {"type": "Point", "coordinates": [-77.3224349000901, 4.57538721892774]}}, {"type": "Feature", "properties": {"nombre": "Rio Quito", "depto": "CHOCO", "provincia": "ATRATO", "cod_dane": "276001000", "municipio": "Rio Quito", "tipo": "CABECERA"}, "geometry": {"type": "Point", "coordinates": [-76.7425768153407, 5.4862409312423]}}, {"type": "Feature", "properties": {"nombre": "Palestina", "depto": "CHOCO", "provincia": "PAC\u00cdFICO SUR", "cod_dane": "272502006", "municipio": "El Litoral Del San Juan", "tipo": "VEREDA"}, "geometry": {"type": "Point", "coordinates": [-77.1396905682359, 4.16527697563746]}}, {"type": "Feature", "properties": {"nombre": "Pangala", "depto": "CHOCO", "provincia": "PAC\u00cdFICO SUR", "cod_dane": "272502029", "municipio": "El Litoral Del San Juan", "tipo": "VEREDA"}, "geometry": {"type": "Point", "coordinates": [-77.0211982925438, 4.24086329682836]}}, {"type": "Feature", "properties": {"nombre": "Pangui", "depto": "CHOCO", "provincia": "PAC\u00cdFICO NORTE", "cod_dane": "274952004", "municipio": "Nuqu\u00ed", "tipo": "VEREDA"}, "geometry": {"type": "Point", "coordinates": [-77.310216903488, 5.66738949114444]}}, {"type": "Feature", "properties": {"nombre": "Pedeguita", "depto": "CHOCO", "provincia": "DARIEN", "cod_dane": "276152030", "municipio": "Riosucio", "tipo": "VEREDA"}, "geometry": {"type": "Point", "coordinates": [-77.0585865256578, 7.26466901129748]}}, {"type": "Feature", "properties": {"nombre": "Pichima", "depto": "CHOCO", "provincia": "PAC\u00cdFICO SUR", "cod_dane": "272502005", "municipio": "El Litoral Del San Juan", "tipo": "VEREDA"}, "geometry": {"type": "Point", "coordinates": [-77.3468795106648, 4.4354439675635]}}, {"type": "Feature", "properties": {"nombre": "Alto Baud\u00f3", "depto": "CHOCO", "provincia": "PAC\u00cdFICO SUR", "cod_dane": "270251000", "municipio": "Alto Baud\u00f3", "tipo": "CABECERA"}, "geometry": {"type": "Point", "coordinates": [-76.9779611535085, 5.51893435271643]}}, {"type": "Feature", "properties": {"nombre": "Pie De Pepe", "depto": "CHOCO", "provincia": "PAC\u00cdFICO SUR", "cod_dane": "274302009", "municipio": "Medio Baud\u00f3", "tipo": "VEREDA"}, "geometry": {"type": "Point", "coordinates": [-76.8285086418501, 5.12161156175335]}}, {"type": "Feature", "properties": {"nombre": "Piliza", "depto": "CHOCO", "provincia": "PAC\u00cdFICO SUR", "cod_dane": "270772011", "municipio": "Bajo Baud\u00f3", "tipo": "VEREDA"}, "geometry": {"type": "Point", "coordinates": [-77.3777694181246, 5.08022812755846]}}, {"type": "Feature", "properties": {"nombre": "Bajo Baud\u00f3", "depto": "CHOCO", "provincia": "PAC\u00cdFICO SUR", "cod_dane": "270771000", "municipio": "Bajo Baud\u00f3", "tipo": "CABECERA"}, "geometry": {"type": "Point", "coordinates": [-77.3692957176747, 4.95631627090075]}}, {"type": "Feature", "properties": {"nombre": "Plan De Raspadura", "depto": "CHOCO", "provincia": "SAN JUAN", "cod_dane": "278102001", "municipio": "Union Panamericana", "tipo": "VEREDA"}, "geometry": {"type": "Point", "coordinates": [-76.6459911908882, 5.22617511340642]}}, {"type": "Feature", "properties": {"nombre": "Playa De Oro", "depto": "CHOCO", "provincia": "SAN JUAN", "cod_dane": "277872010", "municipio": "Tad\u00f3", "tipo": "VEREDA"}, "geometry": {"type": "Point", "coordinates": [-76.4194340862386, 5.31229714412733]}}, {"type": "Feature", "properties": {"nombre": "Pogue", "depto": "CHOCO", "provincia": "ATRATO", "cod_dane": "270992012", "municipio": "Bojay\u00e1", "tipo": "VEREDA"}, "geometry": {"type": "Point", "coordinates": [-77.0031317228862, 6.44069746741901]}}, {"type": "Feature", "properties": {"nombre": "Punta Ardita", "depto": "CHOCO", "provincia": "PAC\u00cdFICO NORTE", "cod_dane": "273722004", "municipio": "Jurad\u00f3", "tipo": "VEREDA"}, "geometry": {"type": "Point", "coordinates": [-77.8097737200537, 7.15373500317968]}}, {"type": "Feature", "properties": {"nombre": "Pte America-Cacarica", "depto": "CHOCO", "provincia": "DARIEN", "cod_dane": "276152027", "municipio": "Riosucio", "tipo": "VEREDA"}, "geometry": {"type": "Point", "coordinates": [-77.1456801069503, 7.72860925510735]}}, {"type": "Feature", "properties": {"nombre": "Puerto Conto", "depto": "CHOCO", "provincia": "ATRATO", "cod_dane": "270992008", "municipio": "Bojay\u00e1", "tipo": "VEREDA"}, "geometry": {"type": "Point", "coordinates": [-76.8527122775843, 6.5539844573879]}}, {"type": "Feature", "properties": {"nombre": "Puerto Echeverri", "depto": "CHOCO", "provincia": "PAC\u00cdFICO SUR", "cod_dane": "270772028", "municipio": "Bajo Baud\u00f3", "tipo": "VEREDA"}, "geometry": {"type": "Point", "coordinates": [-76.9673009179032, 5.3246908144519]}}, {"type": "Feature", "properties": {"nombre": "Punta Pina", "depto": "CHOCO", "provincia": "PAC\u00cdFICO NORTE", "cod_dane": "273722007", "municipio": "Jurad\u00f3", "tipo": "VEREDA"}, "geometry": {"type": "Point", "coordinates": [-77.527740613465, 6.66063189109446]}}, {"type": "Feature", "properties": {"nombre": "Quebrada De Togoroma", "depto": "CHOCO", "provincia": "PAC\u00cdFICO SUR", "cod_dane": "272502003", "municipio": "El Litoral Del San Juan", "tipo": "VEREDA"}, "geometry": {"type": "Point", "coordinates": [-77.385901699015, 4.37938307646487]}}, {"type": "Feature", "properties": {"nombre": "Riosucio", "depto": "CHOCO", "provincia": "DARIEN", "cod_dane": "276151000", "municipio": "Riosucio", "tipo": "CABECERA"}, "geometry": {"type": "Point", "coordinates": [-77.1160944903954, 7.43920894549127]}}, {"type": "Feature", "properties": {"nombre": "Samurindo", "depto": "CHOCO", "provincia": "ATRATO", "cod_dane": "270502003", "municipio": "Atrato", "tipo": "VEREDA"}, "geometry": {"type": "Point", "coordinates": [-76.6559562214864, 5.59021666520153]}}, {"type": "Feature", "properties": {"nombre": "San Agustin", "depto": "CHOCO", "provincia": "SAN JUAN", "cod_dane": "277452003", "municipio": "Sip\u00ed", "tipo": "VEREDA"}, "geometry": {"type": "Point", "coordinates": [-76.8213711270551, 4.75355993274262]}}, {"type": "Feature", "properties": {"nombre": "San Antonio De Icho", "depto": "CHOCO", "provincia": "ATRATO", "cod_dane": "270012048", "municipio": "Quibd\u00f3", "tipo": "VEREDA"}, "geometry": {"type": "Point", "coordinates": [-76.6404475596478, 5.8003186640295]}}, {"type": "Feature", "properties": {"nombre": "San Francisco", "depto": "CHOCO", "provincia": "DARIEN", "cod_dane": "270062007", "municipio": "Acand\u00ed", "tipo": "VEREDA"}, "geometry": {"type": "Point", "coordinates": [-77.1133616045073, 8.36501147506791]}}, {"type": "Feature", "properties": {"nombre": "San Francisco De Icho", "depto": "CHOCO", "provincia": "ATRATO", "cod_dane": "270012024", "municipio": "Quibd\u00f3", "tipo": "VEREDA"}, "geometry": {"type": "Point", "coordinates": [-76.5434352787103, 5.80222465643939]}}, {"type": "Feature", "properties": {"nombre": "Quibd\u00f3", "depto": "CHOCO", "provincia": "ATRATO", "cod_dane": "270011000", "municipio": "Quibd\u00f3", "tipo": "CABECERA"}, "geometry": {"type": "Point", "coordinates": [-76.6570061107496, 5.69171446048442]}}, {"type": "Feature", "properties": {"nombre": "San Isidro", "depto": "CHOCO", "provincia": "ATRATO", "cod_dane": "276002003", "municipio": "Rio Quito", "tipo": "VEREDA"}, "geometry": {"type": "Point", "coordinates": [-76.7510037542039, 5.62752432154577]}}, {"type": "Feature", "properties": {"nombre": "San Jose De La Calle", "depto": "CHOCO", "provincia": "ATRATO", "cod_dane": "270992009", "municipio": "Bojay\u00e1", "tipo": "VEREDA"}, "geometry": {"type": "Point", "coordinates": [-76.7712359963502, 6.47326409603477]}}, {"type": "Feature", "properties": {"nombre": "San Jos\u00e9 Del Palmar", "depto": "CHOCO", "provincia": "SAN JUAN", "cod_dane": "276601000", "municipio": "San Jos\u00e9 Del Palmar", "tipo": "CABECERA"}, "geometry": {"type": "Point", "coordinates": [-76.2376397953285, 4.89903159647481]}}, {"type": "Feature", "properties": {"nombre": "San Lorenzo", "depto": "CHOCO", "provincia": "SAN JUAN", "cod_dane": "274912006", "municipio": "N\u00f3vita", "tipo": "VEREDA"}, "geometry": {"type": "Point", "coordinates": [-76.6409307937888, 4.97870533018204]}}, {"type": "Feature", "properties": {"nombre": "San Pablo Adentro", "depto": "CHOCO", "provincia": "SAN JUAN", "cod_dane": "273612017", "municipio": "Itsmina", "tipo": "VEREDA"}, "geometry": {"type": "Point", "coordinates": [-76.6683484783905, 5.20014633876802]}}, {"type": "Feature", "properties": {"nombre": "San Rafael De Negua", "depto": "CHOCO", "provincia": "ATRATO", "cod_dane": "270012020", "municipio": "Quibd\u00f3", "tipo": "VEREDA"}, "geometry": {"type": "Point", "coordinates": [-76.6221469897409, 5.83265873974973]}}, {"type": "Feature", "properties": {"nombre": "El Litoral Del San Juan", "depto": "CHOCO", "provincia": "PAC\u00cdFICO SUR", "cod_dane": "272501000", "municipio": "El Litoral Del San Juan", "tipo": "CABECERA"}, "geometry": {"type": "Point", "coordinates": [-77.3682217381961, 4.26099344668652]}}, {"type": "Feature", "properties": {"nombre": "Santa Maria Del Darien", "depto": "CHOCO", "provincia": "DARIEN", "cod_dane": "278002003", "municipio": "Ungu\u00eda", "tipo": "VEREDA"}, "geometry": {"type": "Point", "coordinates": [-77.0582976460579, 8.16265099769073]}}, {"type": "Feature", "properties": {"nombre": "Sapzurro", "depto": "CHOCO", "provincia": "DARIEN", "cod_dane": "270062010", "municipio": "Acand\u00ed", "tipo": "VEREDA"}, "geometry": {"type": "Point", "coordinates": [-77.3513740953881, 8.65102844732635]}}, {"type": "Feature", "properties": {"nombre": "Sip\u00ed", "depto": "CHOCO", "provincia": "SAN JUAN", "cod_dane": "277451000", "municipio": "Sip\u00ed", "tipo": "CABECERA"}, "geometry": {"type": "Point", "coordinates": [-76.6474087949527, 4.65603353101837]}}, {"type": "Feature", "properties": {"nombre": "Siviru", "depto": "CHOCO", "provincia": "PAC\u00cdFICO SUR", "cod_dane": "270772016", "municipio": "Bajo Baud\u00f3", "tipo": "VEREDA"}, "geometry": {"type": "Point", "coordinates": [-77.3466791990005, 4.80746801791906]}}, {"type": "Feature", "properties": {"nombre": "Tad\u00f3", "depto": "CHOCO", "provincia": "SAN JUAN", "cod_dane": "277871000", "municipio": "Tad\u00f3", "tipo": "CABECERA"}, "geometry": {"type": "Point", "coordinates": [-76.5622612282098, 5.26727422939281]}}, {"type": "Feature", "properties": {"nombre": "Tagachi", "depto": "CHOCO", "provincia": "ATRATO", "cod_dane": "270012029", "municipio": "Quibd\u00f3", "tipo": "VEREDA"}, "geometry": {"type": "Point", "coordinates": [-76.7291433415673, 6.22442745624272]}}, {"type": "Feature", "properties": {"nombre": "Tanando", "depto": "CHOCO", "provincia": "ATRATO", "cod_dane": "270502004", "municipio": "Atrato", "tipo": "VEREDA"}, "geometry": {"type": "Point", "coordinates": [-76.6031409622049, 5.61513706498165]}}, {"type": "Feature", "properties": {"nombre": "Tangui", "depto": "CHOCO", "provincia": "ATRATO", "cod_dane": "274252009", "municipio": "Medio Atrato", "tipo": "VEREDA"}, "geometry": {"type": "Point", "coordinates": [-76.7284372426177, 5.89878463817542]}}, {"type": "Feature", "properties": {"nombre": "Taparal", "depto": "CHOCO", "provincia": "DARIEN", "cod_dane": "276152029", "municipio": "Riosucio", "tipo": "VEREDA"}, "geometry": {"type": "Point", "coordinates": [-77.2774925063744, 7.05493035497806]}}, {"type": "Feature", "properties": {"nombre": "Termales -Agua Caliente", "depto": "CHOCO", "provincia": "PAC\u00cdFICO NORTE", "cod_dane": "274952010", "municipio": "Nuqu\u00ed", "tipo": "VEREDA"}, "geometry": {"type": "Point", "coordinates": [-77.4445937189304, 5.60885927435034]}}, {"type": "Feature", "properties": {"nombre": "Titumate", "depto": "CHOCO", "provincia": "DARIEN", "cod_dane": "278002005", "municipio": "Ungu\u00eda", "tipo": "VEREDA"}, "geometry": {"type": "Point", "coordinates": [-77.0792278224291, 8.30932284800081]}}, {"type": "Feature", "properties": {"nombre": "Tribuga", "depto": "CHOCO", "provincia": "PAC\u00cdFICO NORTE", "cod_dane": "274952005", "municipio": "Nuqu\u00ed", "tipo": "VEREDA"}, "geometry": {"type": "Point", "coordinates": [-77.25356866052, 5.76891516186177]}}, {"type": "Feature", "properties": {"nombre": "Turriquitado", "depto": "CHOCO", "provincia": "DARIEN", "cod_dane": "276152013", "municipio": "Riosucio", "tipo": "VEREDA"}, "geometry": {"type": "Point", "coordinates": [-76.8012931469072, 6.91483412766678]}}, {"type": "Feature", "properties": {"nombre": "Tutunendo", "depto": "CHOCO", "provincia": "ATRATO", "cod_dane": "270012032", "municipio": "Quibd\u00f3", "tipo": "VEREDA"}, "geometry": {"type": "Point", "coordinates": [-76.5434795425025, 5.7469779803973]}}, {"type": "Feature", "properties": {"nombre": "Ungu\u00eda", "depto": "CHOCO", "provincia": "DARIEN", "cod_dane": "278001000", "municipio": "Ungu\u00eda", "tipo": "CABECERA"}, "geometry": {"type": "Point", "coordinates": [-77.0975784442856, 8.0488062818871]}}, {"type": "Feature", "properties": {"nombre": "Union Valsalito", "depto": "CHOCO", "provincia": "PAC\u00cdFICO SUR", "cod_dane": "272502039", "municipio": "El Litoral Del San Juan", "tipo": "VEREDA"}, "geometry": {"type": "Point", "coordinates": [-77.3722803663172, 4.26389823623858]}}, {"type": "Feature", "properties": {"nombre": "Usaraga", "depto": "CHOCO", "provincia": "PAC\u00cdFICO SUR", "cod_dane": "270772029", "municipio": "Bajo Baud\u00f3", "tipo": "VEREDA"}, "geometry": {"type": "Point", "coordinates": [-77.3427635023211, 4.90604835216278]}}, {"type": "Feature", "properties": {"nombre": "Villa Claret", "depto": "CHOCO", "provincia": "ATRATO", "cod_dane": "274132011", "municipio": "Llor\u00f3", "tipo": "VEREDA"}, "geometry": {"type": "Point", "coordinates": [-76.45649024811, 5.55377383356114]}}, {"type": "Feature", "properties": {"nombre": "Villa Maria", "depto": "CHOCO", "provincia": "PAC\u00cdFICO SUR", "cod_dane": "270772024", "municipio": "Bajo Baud\u00f3", "tipo": "VEREDA"}, "geometry": {"type": "Point", "coordinates": [-77.3583231522601, 5.13837215129764]}}, {"type": "Feature", "properties": {"nombre": "Villaconto", "depto": "CHOCO", "provincia": "ATRATO", "cod_dane": "276002004", "municipio": "Rio Quito", "tipo": "VEREDA"}, "geometry": {"type": "Point", "coordinates": [-76.7580751213599, 5.55976359693195]}}, {"type": "Feature", "properties": {"nombre": "Virudo", "depto": "CHOCO", "provincia": "PAC\u00cdFICO SUR", "cod_dane": "270772019", "municipio": "Bajo Baud\u00f3", "tipo": "VEREDA"}, "geometry": {"type": "Point", "coordinates": [-77.4249796929212, 5.45328179259864]}}, {"type": "Feature", "properties": {"nombre": "Atrato", "depto": "CHOCO", "provincia": "ATRATO", "cod_dane": "270501000", "municipio": "Atrato", "tipo": "CABECERA"}, "geometry": {"type": "Point", "coordinates": [-76.6394046995796, 5.53362693158256]}}]}