{"type": "FeatureCollection", "name": "centros_poblados_ANTIOQUIA", "crs": {"type": "name", "properties": {"name": "urn:ogc:def:crs:OGC:1.3:CRS84"}}, "features": [{"type": "Feature", "properties": {"nombre": "Abejorral", "depto": "ANTIOQUIA", "cod_dane": "050021000", "municipio": "Abejorral", "tipo": "CABECERA"}, "geometry": {"type": "Point", "coordinates": [-75.432191971887, 5.79207441480088]}}, {"type": "Feature", "properties": {"nombre": "Abriaqui", "depto": "ANTIOQUIA", "cod_dane": "050041000", "municipio": "Abriaqui", "tipo": "CABECERA"}, "geometry": {"type": "Point", "coordinates": [-76.0680796193048, 6.63657722788513]}}, {"type": "Feature", "properties": {"nombre": "Aguas Frias", "depto": "ANTIOQUIA", "cod_dane": "050012010", "municipio": "Medellin", "tipo": "VEREDA"}, "geometry": {"type": "Point", "coordinates": [-75.6291381392167, 6.23533137044795]}}, {"type": "Feature", "properties": {"nombre": "Alegrias", "depto": "ANTIOQUIA", "cod_dane": "051452001", "municipio": "Caramanta", "tipo": "VEREDA"}, "geometry": {"type": "Point", "coordinates": [-75.6102516135965, 5.55176662869122]}}, {"type": "Feature", "properties": {"nombre": "Alejandria", "depto": "ANTIOQUIA", "cod_dane": "050211000", "municipio": "Alejandria", "tipo": "CABECERA"}, "geometry": {"type": "Point", "coordinates": [-75.1449141960419, 6.37859475932831]}}, {"type": "Feature", "properties": {"nombre": "Altamira", "depto": "ANTIOQUIA", "cod_dane": "050932001", "municipio": "Betulia", "tipo": "VEREDA"}, "geometry": {"type": "Point", "coordinates": [-75.9532103970882, 6.2226960196831]}}, {"type": "Feature", "properties": {"nombre": "Altavista", "depto": "ANTIOQUIA", "cod_dane": "050012009", "municipio": "Medellin", "tipo": "VEREDA"}, "geometry": {"type": "Point", "coordinates": [-75.6323717731091, 6.22480869788015]}}, {"type": "Feature", "properties": {"nombre": "Alto De Mulatos", "depto": "ANTIOQUIA", "cod_dane": "058372020", "municipio": "Turbo", "tipo": "VEREDA"}, "geometry": {"type": "Point", "coordinates": [-76.5538451096598, 8.13955419164355]}}, {"type": "Feature", "properties": {"nombre": "Alto De Sabanas", "depto": "ANTIOQUIA", "cod_dane": "057562001", "municipio": "Sonson", "tipo": "VEREDA"}, "geometry": {"type": "Point", "coordinates": [-75.3886228940208, 5.72116779927113]}}, {"type": "Feature", "properties": {"nombre": "Amaga", "depto": "ANTIOQUIA", "cod_dane": "050301000", "municipio": "Amaga", "tipo": "CABECERA"}, "geometry": {"type": "Point", "coordinates": [-75.7051050584146, 6.03929013842554]}}, {"type": "Feature", "properties": {"nombre": "Amalfi", "depto": "ANTIOQUIA", "cod_dane": "050311000", "municipio": "Amalfi", "tipo": "CABECERA"}, "geometry": {"type": "Point", "coordinates": [-75.076983303103, 6.9098274476672]}}, {"type": "Feature", "properties": {"nombre": "Andes", "depto": "ANTIOQUIA", "cod_dane": "050341000", "municipio": "Andes", "tipo": "CABECERA"}, "geometry": {"type": "Point", "coordinates": [-75.8828429077997, 5.65982756887926]}}, {"type": "Feature", "properties": {"nombre": "Angelopolis", "depto": "ANTIOQUIA", "cod_dane": "050361000", "municipio": "Angelopolis", "tipo": "CABECERA"}, "geometry": {"type": "Point", "coordinates": [-75.7146717120694, 6.11604580259548]}}, {"type": "Feature", "properties": {"nombre": "Angostura", "depto": "ANTIOQUIA", "cod_dane": "050381000", "municipio": "Angostura", "tipo": "CABECERA"}, "geometry": {"type": "Point", "coordinates": [-75.338813440205, 6.8877989702286]}}, {"type": "Feature", "properties": {"nombre": "Anori", "depto": "ANTIOQUIA", "cod_dane": "050401000", "municipio": "Anori", "tipo": "CABECERA"}, "geometry": {"type": "Point", "coordinates": [-75.15025836792, 7.07857996174242]}}, {"type": "Feature", "properties": {"nombre": "Anza", "depto": "ANTIOQUIA", "cod_dane": "050441000", "municipio": "Anza", "tipo": "CABECERA"}, "geometry": {"type": "Point", "coordinates": [-75.8569839658054, 6.30536617122411]}}, {"type": "Feature", "properties": {"nombre": "Apartado", "depto": "ANTIOQUIA", "cod_dane": "050451000", "municipio": "Apartado", "tipo": "CABECERA"}, "geometry": {"type": "Point", "coordinates": [-76.6290804670069, 7.88473970492245]}}, {"type": "Feature", "properties": {"nombre": "Aquitania", "depto": "ANTIOQUIA", "cod_dane": "056522001", "municipio": "San Francisco", "tipo": "VEREDA"}, "geometry": {"type": "Point", "coordinates": [-74.9744746388482, 5.84740591659519]}}, {"type": "Feature", "properties": {"nombre": "Aragon", "depto": "ANTIOQUIA", "cod_dane": "056862001", "municipio": "Santa.Rosa de Osos", "tipo": "VEREDA"}, "geometry": {"type": "Point", "coordinates": [-75.5650712428629, 6.78520727295289]}}, {"type": "Feature", "properties": {"nombre": "Arboletes", "depto": "ANTIOQUIA", "cod_dane": "050511000", "municipio": "Arboletes", "tipo": "CABECERA"}, "geometry": {"type": "Point", "coordinates": [-76.4301470990604, 8.85315297203293]}}, {"type": "Feature", "properties": {"nombre": "Argelia", "depto": "ANTIOQUIA", "cod_dane": "050551000", "municipio": "Argelia", "tipo": "CABECERA"}, "geometry": {"type": "Point", "coordinates": [-75.1456610715548, 5.73372091391726]}}, {"type": "Feature", "properties": {"nombre": "Armenia", "depto": "ANTIOQUIA", "cod_dane": "050591000", "municipio": "Armenia", "tipo": "CABECERA"}, "geometry": {"type": "Point", "coordinates": [-75.7904103126573, 6.15899952115276]}}, {"type": "Feature", "properties": {"nombre": "Armenia -Camparrusia", "depto": "ANTIOQUIA", "cod_dane": "052342008", "municipio": "Dabeiba", "tipo": "VEREDA"}, "geometry": {"type": "Point", "coordinates": [-76.0404453827674, 7.0029315091262]}}, {"type": "Feature", "properties": {"nombre": "Barbacoas", "depto": "ANTIOQUIA", "cod_dane": "055432001", "municipio": "Peque", "tipo": "VEREDA"}, "geometry": {"type": "Point", "coordinates": [-75.8324291111463, 6.92859759120091]}}, {"type": "Feature", "properties": {"nombre": "Barbosa", "depto": "ANTIOQUIA", "cod_dane": "050791000", "municipio": "Barbosa", "tipo": "CABECERA"}, "geometry": {"type": "Point", "coordinates": [-75.3352243271176, 6.44142251169991]}}, {"type": "Feature", "properties": {"nombre": "Barranquillita", "depto": "ANTIOQUIA", "cod_dane": "051722003", "municipio": "Chigorodo", "tipo": "VEREDA"}, "geometry": {"type": "Point", "coordinates": [-76.7107108150919, 7.5743088489165]}}, {"type": "Feature", "properties": {"nombre": "Barro Blanco", "depto": "ANTIOQUIA", "cod_dane": "057902001", "municipio": "Taraza", "tipo": "VEREDA"}, "geometry": {"type": "Point", "coordinates": [-75.2672516877999, 7.47614564890845]}}, {"type": "Feature", "properties": {"nombre": "Bejuquillo", "depto": "ANTIOQUIA", "cod_dane": "054802001", "municipio": "Mutata", "tipo": "VEREDA"}, "geometry": {"type": "Point", "coordinates": [-76.5097947737876, 7.36944665007887]}}, {"type": "Feature", "properties": {"nombre": "Belen De Bajira", "depto": "ANTIOQUIA", "cod_dane": "054802005", "municipio": "Mutata", "tipo": "VEREDA"}, "geometry": {"type": "Point", "coordinates": [-76.7177905863788, 7.37432855688165]}}, {"type": "Feature", "properties": {"nombre": "Bellavista", "depto": "ANTIOQUIA", "cod_dane": "052372001", "municipio": "Don Matias", "tipo": "VEREDA"}, "geometry": {"type": "Point", "coordinates": [-75.2886861749349, 6.54340154353256]}}, {"type": "Feature", "properties": {"nombre": "Bello", "depto": "ANTIOQUIA", "cod_dane": "050881000", "municipio": "Bello", "tipo": "CABECERA"}, "geometry": {"type": "Point", "coordinates": [-75.5558377861076, 6.3357082051591]}}, {"type": "Feature", "properties": {"nombre": "Belmira", "depto": "ANTIOQUIA", "cod_dane": "050861000", "municipio": "Belmira", "tipo": "CABECERA"}, "geometry": {"type": "Point", "coordinates": [-75.6700432786121, 6.60826811233385]}}, {"type": "Feature", "properties": {"nombre": "Betania", "depto": "ANTIOQUIA", "cod_dane": "050911000", "municipio": "Betania", "tipo": "CABECERA"}, "geometry": {"type": "Point", "coordinates": [-75.981919685426, 5.74943126181101]}}, {"type": "Feature", "properties": {"nombre": "Betulia", "depto": "ANTIOQUIA", "cod_dane": "050931000", "municipio": "Betulia", "tipo": "CABECERA"}, "geometry": {"type": "Point", "coordinates": [-75.9874976217412, 6.11188033427931]}}, {"type": "Feature", "properties": {"nombre": "Bijagual", "depto": "ANTIOQUIA", "cod_dane": "054952001", "municipio": "Nechi", "tipo": "VEREDA"}, "geometry": {"type": "Point", "coordinates": [-74.812537527131, 7.85904336686209]}}, {"type": "Feature", "properties": {"nombre": "Bijagual", "depto": "ANTIOQUIA", "cod_dane": "050452008", "municipio": "Apartado", "tipo": "VEREDA"}, "geometry": {"type": "Point", "coordinates": [-76.6593275145166, 7.79193994426986]}}, {"type": "Feature", "properties": {"nombre": "Bolombolo", "depto": "ANTIOQUIA", "cod_dane": "058612002", "municipio": "Venecia", "tipo": "VEREDA"}, "geometry": {"type": "Point", "coordinates": [-75.841425491916, 5.97332963315514]}}, {"type": "Feature", "properties": {"nombre": "Botero", "depto": "ANTIOQUIA", "cod_dane": "056902001", "municipio": "Santo Domingo", "tipo": "VEREDA"}, "geometry": {"type": "Point", "coordinates": [-75.2360934705156, 6.54091816441916]}}, {"type": "Feature", "properties": {"nombre": "Brasil", "depto": "ANTIOQUIA", "cod_dane": "052402001", "municipio": "Ebejico", "tipo": "VEREDA"}, "geometry": {"type": "Point", "coordinates": [-75.7358759044035, 6.34266234621182]}}, {"type": "Feature", "properties": {"nombre": "Briceno", "depto": "ANTIOQUIA", "cod_dane": "051071000", "municipio": "Briceno", "tipo": "CABECERA"}, "geometry": {"type": "Point", "coordinates": [-75.5541046740402, 7.11530253371884]}}, {"type": "Feature", "properties": {"nombre": "Buchado", "depto": "ANTIOQUIA", "cod_dane": "058732007", "municipio": "Vigia Del Fuerte", "tipo": "VEREDA"}, "geometry": {"type": "Point", "coordinates": [-76.7831838601635, 6.42386886073558]}}, {"type": "Feature", "properties": {"nombre": "Buenos Aires", "depto": "ANTIOQUIA", "cod_dane": "050512001", "municipio": "Arboletes", "tipo": "VEREDA"}, "geometry": {"type": "Point", "coordinates": [-76.287261172013, 8.61457090041811]}}, {"type": "Feature", "properties": {"nombre": "Buenos Aires", "depto": "ANTIOQUIA", "cod_dane": "058952003", "municipio": "Zaragoza", "tipo": "VEREDA"}, "geometry": {"type": "Point", "coordinates": [-74.8172026331721, 7.60939702371929]}}, {"type": "Feature", "properties": {"nombre": "Buenos Aires", "depto": "ANTIOQUIA", "cod_dane": "051382001", "municipio": "Canasgordas", "tipo": "VEREDA"}, "geometry": {"type": "Point", "coordinates": [-76.0135917744371, 6.73072458040879]}}, {"type": "Feature", "properties": {"nombre": "Buenos Aires", "depto": "ANTIOQUIA", "cod_dane": "050342001", "municipio": "Andes", "tipo": "VEREDA"}, "geometry": {"type": "Point", "coordinates": [-75.8387669447751, 5.68574286891343]}}, {"type": "Feature", "properties": {"nombre": "Buritica", "depto": "ANTIOQUIA", "cod_dane": "051131000", "municipio": "Buritica", "tipo": "CABECERA"}, "geometry": {"type": "Point", "coordinates": [-75.9102064899044, 6.72356488105593]}}, {"type": "Feature", "properties": {"nombre": "Caceres", "depto": "ANTIOQUIA", "cod_dane": "051201000", "municipio": "Caceres", "tipo": "CABECERA"}, "geometry": {"type": "Point", "coordinates": [-75.3528456580229, 7.58155281749339]}}, {"type": "Feature", "properties": {"nombre": "Caicedo", "depto": "ANTIOQUIA", "cod_dane": "051251000", "municipio": "Caicedo", "tipo": "CABECERA"}, "geometry": {"type": "Point", "coordinates": [-75.9872947204573, 6.4082454836789]}}, {"type": "Feature", "properties": {"nombre": "Caldas", "depto": "ANTIOQUIA", "cod_dane": "051291000", "municipio": "Caldas", "tipo": "CABECERA"}, "geometry": {"type": "Point", "coordinates": [-75.6399250169166, 6.09500776791957]}}, {"type": "Feature", "properties": {"nombre": "Camiloce Restrepo", "depto": "ANTIOQUIA", "cod_dane": "050302001", "municipio": "Amaga", "tipo": "VEREDA"}, "geometry": {"type": "Point", "coordinates": [-75.7038764994216, 6.02606876575826]}}, {"type": "Feature", "properties": {"nombre": "Campamento", "depto": "ANTIOQUIA", "cod_dane": "051341000", "municipio": "Campamento", "tipo": "CABECERA"}, "geometry": {"type": "Point", "coordinates": [-75.3005394484927, 6.9821450887913]}}, {"type": "Feature", "properties": {"nombre": "Canasgordas", "depto": "ANTIOQUIA", "cod_dane": "051381000", "municipio": "Canasgordas", "tipo": "CABECERA"}, "geometry": {"type": "Point", "coordinates": [-76.0295226173516, 6.75479849063587]}}, {"type": "Feature", "properties": {"nombre": "Caracoli", "depto": "ANTIOQUIA", "cod_dane": "051421000", "municipio": "Caracoli", "tipo": "CABECERA"}, "geometry": {"type": "Point", "coordinates": [-74.7608701384954, 6.41267690863863]}}, {"type": "Feature", "properties": {"nombre": "Caramanta", "depto": "ANTIOQUIA", "cod_dane": "051451000", "municipio": "Caramanta", "tipo": "CABECERA"}, "geometry": {"type": "Point", "coordinates": [-75.6477699291994, 5.55153614891933]}}, {"type": "Feature", "properties": {"nombre": "Carauta", "depto": "ANTIOQUIA", "cod_dane": "052842001", "municipio": "Frontino", "tipo": "VEREDA"}, "geometry": {"type": "Point", "coordinates": [-76.30790616341, 6.67291823284449]}}, {"type": "Feature", "properties": {"nombre": "Carepa", "depto": "ANTIOQUIA", "cod_dane": "051471000", "municipio": "Carepa", "tipo": "CABECERA"}, "geometry": {"type": "Point", "coordinates": [-76.6588838057627, 7.75815056775063]}}, {"type": "Feature", "properties": {"nombre": "Caribia", "depto": "ANTIOQUIA", "cod_dane": "054902005", "municipio": "Necocli", "tipo": "VEREDA"}, "geometry": {"type": "Point", "coordinates": [-76.6742814747699, 8.5048677229603]}}, {"type": "Feature", "properties": {"nombre": "Carolina", "depto": "ANTIOQUIA", "cod_dane": "051501000", "municipio": "Carolina", "tipo": "CABECERA"}, "geometry": {"type": "Point", "coordinates": [-75.2857991397968, 6.72747335631822]}}, {"type": "Feature", "properties": {"nombre": "Casa Blanca", "depto": "ANTIOQUIA", "cod_dane": "054902006", "municipio": "Necocli", "tipo": "VEREDA"}, "geometry": {"type": "Point", "coordinates": [-76.7596969321077, 8.37378497774303]}}, {"type": "Feature", "properties": {"nombre": "Casabe", "depto": "ANTIOQUIA", "cod_dane": "058931000", "municipio": "Yondo", "tipo": "CABECERA"}, "geometry": {"type": "Point", "coordinates": [-73.9138612413906, 7.00553981662348]}}, {"type": "Feature", "properties": {"nombre": "Caucasia", "depto": "ANTIOQUIA", "cod_dane": "051541000", "municipio": "Caucasia", "tipo": "CABECERA"}, "geometry": {"type": "Point", "coordinates": [-75.2010976472861, 7.98139955313034]}}, {"type": "Feature", "properties": {"nombre": "Caucheras", "depto": "ANTIOQUIA", "cod_dane": "054802006", "municipio": "Mutata", "tipo": "VEREDA"}, "geometry": {"type": "Point", "coordinates": [-76.4928727624709, 7.33830857379446]}}, {"type": "Feature", "properties": {"nombre": "Cedeno", "depto": "ANTIOQUIA", "cod_dane": "058872003", "municipio": "Yarumal", "tipo": "VEREDA"}, "geometry": {"type": "Point", "coordinates": [-75.358387244833, 7.07424975345468]}}, {"type": "Feature", "properties": {"nombre": "Cestillal", "depto": "ANTIOQUIA", "cod_dane": "051382002", "municipio": "Canasgordas", "tipo": "VEREDA"}, "geometry": {"type": "Point", "coordinates": [-76.0766709612759, 6.8554301589878]}}, {"type": "Feature", "properties": {"nombre": "Chigorodo", "depto": "ANTIOQUIA", "cod_dane": "051721000", "municipio": "Chigorodo", "tipo": "CABECERA"}, "geometry": {"type": "Point", "coordinates": [-76.6798438982595, 7.66898328701219]}}, {"type": "Feature", "properties": {"nombre": "Churido", "depto": "ANTIOQUIA", "cod_dane": "050452002", "municipio": "Apartado", "tipo": "VEREDA"}, "geometry": {"type": "Point", "coordinates": [-76.6703491383911, 7.8684432907702]}}, {"type": "Feature", "properties": {"nombre": "Cisneros", "depto": "ANTIOQUIA", "cod_dane": "051901000", "municipio": "Cisneros", "tipo": "CABECERA"}, "geometry": {"type": "Point", "coordinates": [-75.0905211508788, 6.54106379206083]}}, {"type": "Feature", "properties": {"nombre": "Ciudad Bolivar", "depto": "ANTIOQUIA", "cod_dane": "051011000", "municipio": "Ciudad Bolivar", "tipo": "CABECERA"}, "geometry": {"type": "Point", "coordinates": [-76.025930324404, 5.85373877110499]}}, {"type": "Feature", "properties": {"nombre": "Cocorna", "depto": "ANTIOQUIA", "cod_dane": "051971000", "municipio": "Cocorna", "tipo": "CABECERA"}, "geometry": {"type": "Point", "coordinates": [-75.1889955858874, 6.06031791036447]}}, {"type": "Feature", "properties": {"nombre": "Colorado", "depto": "ANTIOQUIA", "cod_dane": "054952002", "municipio": "Nechi", "tipo": "VEREDA"}, "geometry": {"type": "Point", "coordinates": [-74.8789631740061, 8.05949567882642]}}, {"type": "Feature", "properties": {"nombre": "Concepcion", "depto": "ANTIOQUIA", "cod_dane": "052061000", "municipio": "Concepcion", "tipo": "CABECERA"}, "geometry": {"type": "Point", "coordinates": [-75.2607827383614, 6.39700439463104]}}, {"type": "Feature", "properties": {"nombre": "Concordia", "depto": "ANTIOQUIA", "cod_dane": "052091000", "municipio": "Concordia", "tipo": "CABECERA"}, "geometry": {"type": "Point", "coordinates": [-75.9107781425906, 6.0485818971162]}}, {"type": "Feature", "properties": {"nombre": "Copacabana", "depto": "ANTIOQUIA", "cod_dane": "052121000", "municipio": "Copacabana", "tipo": "CABECERA"}, "geometry": {"type": "Point", "coordinates": [-75.5062939449539, 6.36062696014196]}}, {"type": "Feature", "properties": {"nombre": "Cordoba", "depto": "ANTIOQUIA", "cod_dane": "057612001", "municipio": "Sopetran", "tipo": "VEREDA"}, "geometry": {"type": "Point", "coordinates": [-75.7731870244997, 6.52096479378304]}}, {"type": "Feature", "properties": {"nombre": "Corrientes", "depto": "ANTIOQUIA", "cod_dane": "056742001", "municipio": "San Vicente", "tipo": "VEREDA"}, "geometry": {"type": "Point", "coordinates": [-75.2560638623856, 6.31422239677688]}}, {"type": "Feature", "properties": {"nombre": "Cristales", "depto": "ANTIOQUIA", "cod_dane": "056702001", "municipio": "San Roque", "tipo": "VEREDA"}, "geometry": {"type": "Point", "coordinates": [-74.920001432655, 6.4870530737688]}}, {"type": "Feature", "properties": {"nombre": "Cristalina", "depto": "ANTIOQUIA", "cod_dane": "055792005", "municipio": "Puerto Berrio", "tipo": "VEREDA"}, "geometry": {"type": "Point", "coordinates": [-74.5804155344758, 6.4137092871808]}}, {"type": "Feature", "properties": {"nombre": "Currulao", "depto": "ANTIOQUIA", "cod_dane": "058372001", "municipio": "Turbo", "tipo": "VEREDA"}, "geometry": {"type": "Point", "coordinates": [-76.6413401042508, 8.00059427453872]}}, {"type": "Feature", "properties": {"nombre": "Cuturu", "depto": "ANTIOQUIA", "cod_dane": "051542003", "municipio": "Caucasia", "tipo": "VEREDA"}, "geometry": {"type": "Point", "coordinates": [-74.7901932955616, 7.72974181027451]}}, {"type": "Feature", "properties": {"nombre": "Dabeiba", "depto": "ANTIOQUIA", "cod_dane": "052341000", "municipio": "Dabeiba", "tipo": "CABECERA"}, "geometry": {"type": "Point", "coordinates": [-76.2663372825546, 7.00281814132794]}}, {"type": "Feature", "properties": {"nombre": "Damaquiel", "depto": "ANTIOQUIA", "cod_dane": "056592001", "municipio": "San Juan de Uraba", "tipo": "VEREDA"}, "geometry": {"type": "Point", "coordinates": [-76.6102267890471, 8.74209597359514]}}, {"type": "Feature", "properties": {"nombre": "Damasco", "depto": "ANTIOQUIA", "cod_dane": "056792001", "municipio": "Santa Barbara", "tipo": "VEREDA"}, "geometry": {"type": "Point", "coordinates": [-75.5758773019727, 5.79415625594566]}}, {"type": "Feature", "properties": {"nombre": "Don Matias", "depto": "ANTIOQUIA", "cod_dane": "052371000", "municipio": "Don Matias", "tipo": "CABECERA"}, "geometry": {"type": "Point", "coordinates": [-75.3975802371758, 6.48863168294934]}}, {"type": "Feature", "properties": {"nombre": "Doradal", "depto": "ANTIOQUIA", "cod_dane": "055912004", "municipio": "Puerto Triunfo", "tipo": "VEREDA"}, "geometry": {"type": "Point", "coordinates": [-74.7373183158261, 5.90261128570584]}}, {"type": "Feature", "properties": {"nombre": "Ebejico", "depto": "ANTIOQUIA", "cod_dane": "052401000", "municipio": "Ebejico", "tipo": "CABECERA"}, "geometry": {"type": "Point", "coordinates": [-75.7707259091316, 6.32988386882884]}}, {"type": "Feature", "properties": {"nombre": "El Bagre", "depto": "ANTIOQUIA", "cod_dane": "052501000", "municipio": "El Bagre", "tipo": "CABECERA"}, "geometry": {"type": "Point", "coordinates": [-74.8093748450603, 7.60233939347223]}}, {"type": "Feature", "properties": {"nombre": "El Bobal", "depto": "ANTIOQUIA", "cod_dane": "054902007", "municipio": "Necocli", "tipo": "VEREDA"}, "geometry": {"type": "Point", "coordinates": [-76.757250130546, 8.41489601560822]}}, {"type": "Feature", "properties": {"nombre": "El Boton", "depto": "ANTIOQUIA", "cod_dane": "052342014", "municipio": "Dabeiba", "tipo": "VEREDA"}, "geometry": {"type": "Point", "coordinates": [-76.2588776089001, 6.92733597306975]}}, {"type": "Feature", "properties": {"nombre": "El Carmelo", "depto": "ANTIOQUIA", "cod_dane": "050512003", "municipio": "Arboletes", "tipo": "VEREDA"}, "geometry": {"type": "Point", "coordinates": [-76.3852147123514, 8.6189743933066]}}, {"type": "Feature", "properties": {"nombre": "El Carmen - La Venta", "depto": "ANTIOQUIA", "cod_dane": "054112001", "municipio": "Liborina", "tipo": "VEREDA"}, "geometry": {"type": "Point", "coordinates": [-75.7534276425487, 6.68521216877562]}}, {"type": "Feature", "properties": {"nombre": "El Carmen De Viboral", "depto": "ANTIOQUIA", "cod_dane": "051481000", "municipio": "Carmen de Viboral", "tipo": "CABECERA"}, "geometry": {"type": "Point", "coordinates": [-75.3390152619284, 6.08676616828627]}}, {"type": "Feature", "properties": {"nombre": "El Cedro", "depto": "ANTIOQUIA", "cod_dane": "058872004", "municipio": "Yarumal", "tipo": "VEREDA"}, "geometry": {"type": "Point", "coordinates": [-75.3626569114097, 7.19277722676261]}}, {"type": "Feature", "properties": {"nombre": "El Concilio", "depto": "ANTIOQUIA", "cod_dane": "056422001", "municipio": "Salgar", "tipo": "VEREDA"}, "geometry": {"type": "Point", "coordinates": [-75.9379027847166, 5.96175657577803]}}, {"type": "Feature", "properties": {"nombre": "El Doce", "depto": "ANTIOQUIA", "cod_dane": "057902002", "municipio": "Taraza", "tipo": "VEREDA"}, "geometry": {"type": "Point", "coordinates": [-75.3106296286675, 7.44880496339169]}}, {"type": "Feature", "properties": {"nombre": "El Guadual", "depto": "ANTIOQUIA", "cod_dane": "050512014", "municipio": "Arboletes", "tipo": "VEREDA"}, "geometry": {"type": "Point", "coordinates": [-76.3882317882254, 8.48968424489119]}}, {"type": "Feature", "properties": {"nombre": "El Hatillo", "depto": "ANTIOQUIA", "cod_dane": "050792001", "municipio": "Barbosa", "tipo": "VEREDA"}, "geometry": {"type": "Point", "coordinates": [-75.3968351121314, 6.41452815311953]}}, {"type": "Feature", "properties": {"nombre": "El Jardin (Tamana)", "depto": "ANTIOQUIA", "cod_dane": "051202002", "municipio": "Caceres", "tipo": "VEREDA"}, "geometry": {"type": "Point", "coordinates": [-75.2576171334594, 7.75516181928032]}}, {"type": "Feature", "properties": {"nombre": "El Jordan", "depto": "ANTIOQUIA", "cod_dane": "056492001", "municipio": "San Carlos", "tipo": "VEREDA"}, "geometry": {"type": "Point", "coordinates": [-74.8328786188834, 6.25408194049141]}}, {"type": "Feature", "properties": {"nombre": "El Junco", "depto": "ANTIOQUIA", "cod_dane": "056282001", "municipio": "Sabanalarga", "tipo": "VEREDA"}, "geometry": {"type": "Point", "coordinates": [-75.829127556355, 6.80981295858219]}}, {"type": "Feature", "properties": {"nombre": "El Pital (Orobajo)", "depto": "ANTIOQUIA", "cod_dane": "058422003", "municipio": "Uramita", "tipo": "VEREDA"}, "geometry": {"type": "Point", "coordinates": [-76.1356244869659, 6.86220444465725]}}, {"type": "Feature", "properties": {"nombre": "El Prodigio", "depto": "ANTIOQUIA", "cod_dane": "056602006", "municipio": "San Luis", "tipo": "VEREDA"}, "geometry": {"type": "Point", "coordinates": [-74.8119706573208, 6.0659920637453]}}, {"type": "Feature", "properties": {"nombre": "El Pueblito", "depto": "ANTIOQUIA", "cod_dane": "058872009", "municipio": "Yarumal", "tipo": "VEREDA"}, "geometry": {"type": "Point", "coordinates": [-75.3604403309958, 7.18371781288426]}}, {"type": "Feature", "properties": {"nombre": "El Real", "depto": "ANTIOQUIA", "cod_dane": "052502005", "municipio": "El Bagre", "tipo": "VEREDA"}, "geometry": {"type": "Point", "coordinates": [-74.7875005077137, 7.62698822710547]}}, {"type": "Feature", "properties": {"nombre": "El Reposo", "depto": "ANTIOQUIA", "cod_dane": "050452009", "municipio": "Apartado", "tipo": "VEREDA"}, "geometry": {"type": "Point", "coordinates": [-76.6567912753332, 7.80386180947336]}}, {"type": "Feature", "properties": {"nombre": "El Salto", "depto": "ANTIOQUIA", "cod_dane": "053102001", "municipio": "Gomez Plata", "tipo": "VEREDA"}, "geometry": {"type": "Point", "coordinates": [-75.2409656101522, 6.78640808670033]}}, {"type": "Feature", "properties": {"nombre": "El Santuario", "depto": "ANTIOQUIA", "cod_dane": "056971000", "municipio": "Santuario", "tipo": "CABECERA"}, "geometry": {"type": "Point", "coordinates": [-75.2672701819413, 6.14046703517878]}}, {"type": "Feature", "properties": {"nombre": "El Socorro", "depto": "ANTIOQUIA", "cod_dane": "052092001", "municipio": "Concordia", "tipo": "VEREDA"}, "geometry": {"type": "Point", "coordinates": [-75.9044663554327, 6.12382897733742]}}, {"type": "Feature", "properties": {"nombre": "El Tigre", "depto": "ANTIOQUIA", "cod_dane": "058582001", "municipio": "Vegachi", "tipo": "VEREDA"}, "geometry": {"type": "Point", "coordinates": [-74.801198725356, 6.86253240273969]}}, {"type": "Feature", "properties": {"nombre": "El Totumo", "depto": "ANTIOQUIA", "cod_dane": "054902001", "municipio": "Necocli", "tipo": "VEREDA"}, "geometry": {"type": "Point", "coordinates": [-76.7488493427434, 8.33416060260293]}}, {"type": "Feature", "properties": {"nombre": "El Tres", "depto": "ANTIOQUIA", "cod_dane": "058372003", "municipio": "Turbo", "tipo": "VEREDA"}, "geometry": {"type": "Point", "coordinates": [-76.6633091957693, 8.06746330433281]}}, {"type": "Feature", "properties": {"nombre": "El Valle", "depto": "ANTIOQUIA", "cod_dane": "058192002", "municipio": "Toledo", "tipo": "VEREDA"}, "geometry": {"type": "Point", "coordinates": [-75.6776174110348, 7.05508948052147]}}, {"type": "Feature", "properties": {"nombre": "El Yeso", "depto": "ANTIOQUIA", "cod_dane": "050512008", "municipio": "Arboletes", "tipo": "VEREDA"}, "geometry": {"type": "Point", "coordinates": [-76.4796485302441, 8.61949940491613]}}, {"type": "Feature", "properties": {"nombre": "Entrerrios", "depto": "ANTIOQUIA", "cod_dane": "052641000", "municipio": "Entrerrios", "tipo": "CABECERA"}, "geometry": {"type": "Point", "coordinates": [-75.5200531860125, 6.56907492894575]}}, {"type": "Feature", "properties": {"nombre": "Envigado", "depto": "ANTIOQUIA", "cod_dane": "052661000", "municipio": "Envigado", "tipo": "CABECERA"}, "geometry": {"type": "Point", "coordinates": [-75.5868222197539, 6.16925970851908]}}, {"type": "Feature", "properties": {"nombre": "Estacion Cocorna", "depto": "ANTIOQUIA", "cod_dane": "055912003", "municipio": "Puerto Triunfo", "tipo": "VEREDA"}, "geometry": {"type": "Point", "coordinates": [-74.6427463729535, 6.03662697759474]}}, {"type": "Feature", "properties": {"nombre": "Estacion Pita", "depto": "ANTIOQUIA", "cod_dane": "055912007", "municipio": "Puerto Triunfo", "tipo": "VEREDA"}, "geometry": {"type": "Point", "coordinates": [-74.6374347946416, 5.9570364502951]}}, {"type": "Feature", "properties": {"nombre": "Farallones", "depto": "ANTIOQUIA", "cod_dane": "051012002", "municipio": "Ciudad Bolivar", "tipo": "VEREDA"}, "geometry": {"type": "Point", "coordinates": [-76.0325373922518, 5.80453815268301]}}, {"type": "Feature", "properties": {"nombre": "Fraguas", "depto": "ANTIOQUIA", "cod_dane": "057362001", "municipio": "Segovia", "tipo": "VEREDA"}, "geometry": {"type": "Point", "coordinates": [-74.8240145720854, 7.25857603654374]}}, {"type": "Feature", "properties": {"nombre": "Fredonia", "depto": "ANTIOQUIA", "cod_dane": "052821000", "municipio": "Fredonia", "tipo": "CABECERA"}, "geometry": {"type": "Point", "coordinates": [-75.6749946184879, 5.92951883948018]}}, {"type": "Feature", "properties": {"nombre": "Frontino", "depto": "ANTIOQUIA", "cod_dane": "052841000", "municipio": "Frontino", "tipo": "CABECERA"}, "geometry": {"type": "Point", "coordinates": [-76.1340752608074, 6.77920645581746]}}, {"type": "Feature", "properties": {"nombre": "Giraldo", "depto": "ANTIOQUIA", "cod_dane": "053061000", "municipio": "Giraldo", "tipo": "CABECERA"}, "geometry": {"type": "Point", "coordinates": [-75.9548905517687, 6.68242172631914]}}, {"type": "Feature", "properties": {"nombre": "Girardota", "depto": "ANTIOQUIA", "cod_dane": "053081000", "municipio": "Girardota", "tipo": "CABECERA"}, "geometry": {"type": "Point", "coordinates": [-75.4479675669066, 6.38046643069621]}}, {"type": "Feature", "properties": {"nombre": "Gomez Plata", "depto": "ANTIOQUIA", "cod_dane": "053101000", "municipio": "Gomez Plata", "tipo": "CABECERA"}, "geometry": {"type": "Point", "coordinates": [-75.2242867304701, 6.68560410759807]}}, {"type": "Feature", "properties": {"nombre": "Granada", "depto": "ANTIOQUIA", "cod_dane": "053131000", "municipio": "Granada", "tipo": "CABECERA"}, "geometry": {"type": "Point", "coordinates": [-75.1866512499031, 6.14257811265865]}}, {"type": "Feature", "properties": {"nombre": "Guadalupe", "depto": "ANTIOQUIA", "cod_dane": "053151000", "municipio": "Guadalupe", "tipo": "CABECERA"}, "geometry": {"type": "Point", "coordinates": [-75.2438464245736, 6.81693898631529]}}, {"type": "Feature", "properties": {"nombre": "Guarne", "depto": "ANTIOQUIA", "cod_dane": "053181000", "municipio": "Guarne", "tipo": "CABECERA"}, "geometry": {"type": "Point", "coordinates": [-75.4461603066925, 6.27834140154967]}}, {"type": "Feature", "properties": {"nombre": "Guarumo", "depto": "ANTIOQUIA", "cod_dane": "051202003", "municipio": "Caceres", "tipo": "VEREDA"}, "geometry": {"type": "Point", "coordinates": [-75.2113629091874, 7.85778188352707]}}, {"type": "Feature", "properties": {"nombre": "Guasabra", "depto": "ANTIOQUIA", "cod_dane": "050422002", "municipio": "Santafe de Antioquia", "tipo": "VEREDA"}, "geometry": {"type": "Point", "coordinates": [-75.9524507918682, 6.49041742653531]}}, {"type": "Feature", "properties": {"nombre": "Guatape", "depto": "ANTIOQUIA", "cod_dane": "053211000", "municipio": "Guatape", "tipo": "CABECERA"}, "geometry": {"type": "Point", "coordinates": [-75.1618833095047, 6.23485469378994]}}, {"type": "Feature", "properties": {"nombre": "Guintar", "depto": "ANTIOQUIA", "cod_dane": "050442001", "municipio": "Anza", "tipo": "VEREDA"}, "geometry": {"type": "Point", "coordinates": [-75.9608477253509, 6.30473869682008]}}, {"type": "Feature", "properties": {"nombre": "Heliconia", "depto": "ANTIOQUIA", "cod_dane": "053471000", "municipio": "Heliconia", "tipo": "CABECERA"}, "geometry": {"type": "Point", "coordinates": [-75.737333695178, 6.21046203627019]}}, {"type": "Feature", "properties": {"nombre": "Hispania", "depto": "ANTIOQUIA", "cod_dane": "053531000", "municipio": "Hispania", "tipo": "CABECERA"}, "geometry": {"type": "Point", "coordinates": [-75.9104961560243, 5.80205775856849]}}, {"type": "Feature", "properties": {"nombre": "Horizontes", "depto": "ANTIOQUIA", "cod_dane": "057612003", "municipio": "Sopetran", "tipo": "VEREDA"}, "geometry": {"type": "Point", "coordinates": [-75.7424393638324, 6.60187411141416]}}, {"type": "Feature", "properties": {"nombre": "Hoyo Rico", "depto": "ANTIOQUIA", "cod_dane": "056862003", "municipio": "Santa.Rosa de Osos", "tipo": "VEREDA"}, "geometry": {"type": "Point", "coordinates": [-75.4285641836717, 6.60736862853323]}}, {"type": "Feature", "properties": {"nombre": "Itagui", "depto": "ANTIOQUIA", "cod_dane": "053601000", "municipio": "Itagui", "tipo": "CABECERA"}, "geometry": {"type": "Point", "coordinates": [-75.6151758697073, 6.17853196200049]}}, {"type": "Feature", "properties": {"nombre": "Ituango", "depto": "ANTIOQUIA", "cod_dane": "053611000", "municipio": "Ituango", "tipo": "CABECERA"}, "geometry": {"type": "Point", "coordinates": [-75.7682142446459, 7.17501683366385]}}, {"type": "Feature", "properties": {"nombre": "Jardin", "depto": "ANTIOQUIA", "cod_dane": "053641000", "municipio": "Jardin", "tipo": "CABECERA"}, "geometry": {"type": "Point", "coordinates": [-75.8222576653688, 5.60038348327407]}}, {"type": "Feature", "properties": {"nombre": "Jerico", "depto": "ANTIOQUIA", "cod_dane": "053681000", "municipio": "Jerico", "tipo": "CABECERA"}, "geometry": {"type": "Point", "coordinates": [-75.7886773463197, 5.79412098012621]}}, {"type": "Feature", "properties": {"nombre": "Jerusalen", "depto": "ANTIOQUIA", "cod_dane": "057562033", "municipio": "Sonson", "tipo": "VEREDA"}, "geometry": {"type": "Point", "coordinates": [-74.8508993632833, 5.89983354958045]}}, {"type": "Feature", "properties": {"nombre": "Juntas De Uramita", "depto": "ANTIOQUIA", "cod_dane": "051382003", "municipio": "Canasgordas", "tipo": "VEREDA"}, "geometry": {"type": "Point", "coordinates": [-76.0341123872928, 6.92513711226591]}}, {"type": "Feature", "properties": {"nombre": "La Camara", "depto": "ANTIOQUIA", "cod_dane": "056422002", "municipio": "Salgar", "tipo": "VEREDA"}, "geometry": {"type": "Point", "coordinates": [-75.9871379566093, 6.0308438794002]}}, {"type": "Feature", "properties": {"nombre": "La Candelaria", "depto": "ANTIOQUIA", "cod_dane": "050512011", "municipio": "Arboletes", "tipo": "VEREDA"}, "geometry": {"type": "Point", "coordinates": [-76.4567374617547, 8.66068203895916]}}, {"type": "Feature", "properties": {"nombre": "La Caucana", "depto": "ANTIOQUIA", "cod_dane": "057902004", "municipio": "Taraza", "tipo": "VEREDA"}, "geometry": {"type": "Point", "coordinates": [-75.5254214582972, 7.64412200138322]}}, {"type": "Feature", "properties": {"nombre": "La Ceja", "depto": "ANTIOQUIA", "cod_dane": "053761000", "municipio": "La Ceja", "tipo": "CABECERA"}, "geometry": {"type": "Point", "coordinates": [-75.433626287152, 6.03102679530166]}}, {"type": "Feature", "properties": {"nombre": "La Clarita", "depto": "ANTIOQUIA", "cod_dane": "050302003", "municipio": "Amaga", "tipo": "VEREDA"}, "geometry": {"type": "Point", "coordinates": [-75.7019138688087, 6.0696650548094]}}, {"type": "Feature", "properties": {"nombre": "La Concha", "depto": "ANTIOQUIA", "cod_dane": "054952003", "municipio": "Nechi", "tipo": "VEREDA"}, "geometry": {"type": "Point", "coordinates": [-74.8707352505119, 7.95156999017701]}}, {"type": "Feature", "properties": {"nombre": "La Concha", "depto": "ANTIOQUIA", "cod_dane": "054002004", "municipio": "La Union", "tipo": "VEREDA"}, "geometry": {"type": "Point", "coordinates": [-75.3721394827353, 5.9844230833781]}}, {"type": "Feature", "properties": {"nombre": "La Cruzada", "depto": "ANTIOQUIA", "cod_dane": "056042001", "municipio": "Remedios", "tipo": "VEREDA"}, "geometry": {"type": "Point", "coordinates": [-74.7180525657182, 7.07315489071229]}}, {"type": "Feature", "properties": {"nombre": "La Danta", "depto": "ANTIOQUIA", "cod_dane": "057562030", "municipio": "Sonson", "tipo": "VEREDA"}, "geometry": {"type": "Point", "coordinates": [-74.8321965059086, 5.84069625386898]}}, {"type": "Feature", "properties": {"nombre": "La Encarnacion", "depto": "ANTIOQUIA", "cod_dane": "058472003", "municipio": "Urrao", "tipo": "VEREDA"}, "geometry": {"type": "Point", "coordinates": [-76.2097239060972, 6.44357472146654]}}, {"type": "Feature", "properties": {"nombre": "La Estrella", "depto": "ANTIOQUIA", "cod_dane": "053801000", "municipio": "La Estrella", "tipo": "CABECERA"}, "geometry": {"type": "Point", "coordinates": [-75.640274674433, 6.14803603198049]}}, {"type": "Feature", "properties": {"nombre": "La Floresta", "depto": "ANTIOQUIA", "cod_dane": "058902001", "municipio": "Yolombo", "tipo": "VEREDA"}, "geometry": {"type": "Point", "coordinates": [-74.8656621524639, 6.63925298456325]}}, {"type": "Feature", "properties": {"nombre": "La Floresta", "depto": "ANTIOQUIA", "cod_dane": "054252003", "municipio": "Maceo", "tipo": "VEREDA"}, "geometry": {"type": "Point", "coordinates": [-74.7067606950868, 6.48039848862435]}}, {"type": "Feature", "properties": {"nombre": "La Granja", "depto": "ANTIOQUIA", "cod_dane": "053612003", "municipio": "Ituango", "tipo": "VEREDA"}, "geometry": {"type": "Point", "coordinates": [-75.7257919313671, 7.28840753753839]}}, {"type": "Feature", "properties": {"nombre": "La Herradura", "depto": "ANTIOQUIA", "cod_dane": "050592001", "municipio": "Armenia", "tipo": "VEREDA"}, "geometry": {"type": "Point", "coordinates": [-75.8101960001787, 6.14882485338741]}}, {"type": "Feature", "properties": {"nombre": "La Honda", "depto": "ANTIOQUIA", "cod_dane": "054112002", "municipio": "Liborina", "tipo": "VEREDA"}, "geometry": {"type": "Point", "coordinates": [-75.8310360971601, 6.78308616946159]}}, {"type": "Feature", "properties": {"nombre": "La Hondita", "depto": "ANTIOQUIA", "cod_dane": "056492013", "municipio": "San Carlos", "tipo": "VEREDA"}, "geometry": {"type": "Point", "coordinates": [-75.0719405277179, 6.14412519965991]}}, {"type": "Feature", "properties": {"nombre": "La Ilusion", "depto": "ANTIOQUIA", "cod_dane": "051542022", "municipio": "Caucasia", "tipo": "VEREDA"}, "geometry": {"type": "Point", "coordinates": [-75.0957342651372, 8.0262701567534]}}, {"type": "Feature", "properties": {"nombre": "La Madera (Aurora)", "depto": "ANTIOQUIA", "cod_dane": "051482008", "municipio": "Carmen de Viboral", "tipo": "VEREDA"}, "geometry": {"type": "Point", "coordinates": [-75.3305477892683, 6.08701580445066]}}, {"type": "Feature", "properties": {"nombre": "La Magdalena", "depto": "ANTIOQUIA", "cod_dane": "055851000", "municipio": "Puerto Nare", "tipo": "CABECERA"}, "geometry": {"type": "Point", "coordinates": [-74.5867184374131, 6.18950247329983]}}, {"type": "Feature", "properties": {"nombre": "La Margarita", "depto": "ANTIOQUIA", "cod_dane": "056422003", "municipio": "Salgar", "tipo": "VEREDA"}, "geometry": {"type": "Point", "coordinates": [-76.0095152818087, 5.96224512063162]}}, {"type": "Feature", "properties": {"nombre": "La Merced (Playon)", "depto": "ANTIOQUIA", "cod_dane": "054112003", "municipio": "Liborina", "tipo": "VEREDA"}, "geometry": {"type": "Point", "coordinates": [-75.752570195557, 6.76852193434318]}}, {"type": "Feature", "properties": {"nombre": "La Mercedes", "depto": "ANTIOQUIA", "cod_dane": "055912005", "municipio": "Puerto Triunfo", "tipo": "VEREDA"}, "geometry": {"type": "Point", "coordinates": [-74.7763828137547, 5.93185861606731]}}, {"type": "Feature", "properties": {"nombre": "La Pintada", "depto": "ANTIOQUIA", "cod_dane": "053901000", "municipio": "La Pintada", "tipo": "CABECERA"}, "geometry": {"type": "Point", "coordinates": [-75.6086898959345, 5.74950537463749]}}, {"type": "Feature", "properties": {"nombre": "La Sierra", "depto": "ANTIOQUIA", "cod_dane": "055852003", "municipio": "Puerto Nare", "tipo": "VEREDA"}, "geometry": {"type": "Point", "coordinates": [-74.5722355432838, 6.2295585506018]}}, {"type": "Feature", "properties": {"nombre": "La Susana", "depto": "ANTIOQUIA", "cod_dane": "054252001", "municipio": "Maceo", "tipo": "VEREDA"}, "geometry": {"type": "Point", "coordinates": [-74.6621862060411, 6.60365242108369]}}, {"type": "Feature", "properties": {"nombre": "La Trinidad", "depto": "ANTIOQUIA", "cod_dane": "050512009", "municipio": "Arboletes", "tipo": "VEREDA"}, "geometry": {"type": "Point", "coordinates": [-76.5148229601162, 8.62784001007609]}}, {"type": "Feature", "properties": {"nombre": "La Union", "depto": "ANTIOQUIA", "cod_dane": "055852004", "municipio": "Puerto Nare", "tipo": "VEREDA"}, "geometry": {"type": "Point", "coordinates": [-74.7057534538219, 6.1873149964296]}}, {"type": "Feature", "properties": {"nombre": "La Union", "depto": "ANTIOQUIA", "cod_dane": "054001000", "municipio": "La Union", "tipo": "CABECERA"}, "geometry": {"type": "Point", "coordinates": [-75.3639610892766, 5.97715904453436]}}, {"type": "Feature", "properties": {"nombre": "Labores", "depto": "ANTIOQUIA", "cod_dane": "050862001", "municipio": "Belmira", "tipo": "VEREDA"}, "geometry": {"type": "Point", "coordinates": [-75.6157068853569, 6.71218999031216]}}, {"type": "Feature", "properties": {"nombre": "Las Cruces De Urama", "depto": "ANTIOQUIA", "cod_dane": "052342010", "municipio": "Dabeiba", "tipo": "VEREDA"}, "geometry": {"type": "Point", "coordinates": [-76.2031096880436, 7.02044253230148]}}, {"type": "Feature", "properties": {"nombre": "Las Naranjitas", "depto": "ANTIOQUIA", "cod_dane": "050512005", "municipio": "Arboletes", "tipo": "VEREDA"}, "geometry": {"type": "Point", "coordinates": [-76.3368193988336, 8.53205547778036]}}, {"type": "Feature", "properties": {"nombre": "Las Palmas", "depto": "ANTIOQUIA", "cod_dane": "052662001", "municipio": "Envigado", "tipo": "VEREDA"}, "geometry": {"type": "Point", "coordinates": [-75.5377992427583, 6.15610332088978]}}, {"type": "Feature", "properties": {"nombre": "Las Platas (Santafe)", "depto": "ANTIOQUIA", "cod_dane": "050512010", "municipio": "Arboletes", "tipo": "VEREDA"}, "geometry": {"type": "Point", "coordinates": [-76.4439532883722, 8.58431201835152]}}, {"type": "Feature", "properties": {"nombre": "Liborina", "depto": "ANTIOQUIA", "cod_dane": "054111000", "municipio": "Liborina", "tipo": "CABECERA"}, "geometry": {"type": "Point", "coordinates": [-75.8155109115047, 6.6806166765733]}}, {"type": "Feature", "properties": {"nombre": "Llanadas", "depto": "ANTIOQUIA", "cod_dane": "055012001", "municipio": "Olaya", "tipo": "VEREDA"}, "geometry": {"type": "Point", "coordinates": [-75.7676687842889, 6.61522562343722]}}, {"type": "Feature", "properties": {"nombre": "Llanos De Cuiba", "depto": "ANTIOQUIA", "cod_dane": "058872007", "municipio": "Yarumal", "tipo": "VEREDA"}, "geometry": {"type": "Point", "coordinates": [-75.4887811099398, 6.81792723456922]}}, {"type": "Feature", "properties": {"nombre": "Los Llanos", "depto": "ANTIOQUIA", "cod_dane": "055432003", "municipio": "Peque", "tipo": "VEREDA"}, "geometry": {"type": "Point", "coordinates": [-75.9094788964856, 7.06735467985596]}}, {"type": "Feature", "properties": {"nombre": "Los Naranjales", "depto": "ANTIOQUIA", "cod_dane": "050452007", "municipio": "Apartado", "tipo": "VEREDA"}, "geometry": {"type": "Point", "coordinates": [-76.7162896141441, 7.82222761258962]}}, {"type": "Feature", "properties": {"nombre": "Los Palomos", "depto": "ANTIOQUIA", "cod_dane": "052822002", "municipio": "Fredonia", "tipo": "VEREDA"}, "geometry": {"type": "Point", "coordinates": [-75.6811777418767, 5.97190451460017]}}, {"type": "Feature", "properties": {"nombre": "Maceo", "depto": "ANTIOQUIA", "cod_dane": "054251000", "municipio": "Maceo", "tipo": "CABECERA"}, "geometry": {"type": "Point", "coordinates": [-74.7910665997599, 6.5548673914473]}}, {"type": "Feature", "properties": {"nombre": "Manglar", "depto": "ANTIOQUIA", "cod_dane": "053062001", "municipio": "Giraldo", "tipo": "VEREDA"}, "geometry": {"type": "Point", "coordinates": [-75.9524016920572, 6.69707659113441]}}, {"type": "Feature", "properties": {"nombre": "Manizales", "depto": "ANTIOQUIA", "cod_dane": "051202004", "municipio": "Caceres", "tipo": "VEREDA"}, "geometry": {"type": "Point", "coordinates": [-75.4186760975596, 7.83924158086927]}}, {"type": "Feature", "properties": {"nombre": "Margento", "depto": "ANTIOQUIA", "cod_dane": "051542006", "municipio": "Caucasia", "tipo": "VEREDA"}, "geometry": {"type": "Point", "coordinates": [-74.9581904732737, 8.03800624860597]}}, {"type": "Feature", "properties": {"nombre": "Marinilla", "depto": "ANTIOQUIA", "cod_dane": "054401000", "municipio": "Marinilla", "tipo": "CABECERA"}, "geometry": {"type": "Point", "coordinates": [-75.3411797490414, 6.17590042216912]}}, {"type": "Feature", "properties": {"nombre": "Marsella", "depto": "ANTIOQUIA", "cod_dane": "052822005", "municipio": "Fredonia", "tipo": "VEREDA"}, "geometry": {"type": "Point", "coordinates": [-75.6912620883347, 5.86619703073806]}}, {"type": "Feature", "properties": {"nombre": "Medellin", "depto": "ANTIOQUIA", "cod_dane": "050011000", "municipio": "Medellin", "tipo": "CABECERA"}, "geometry": {"type": "Point", "coordinates": [-75.5791131176392, 6.25179212765138]}}, {"type": "Feature", "properties": {"nombre": "Mesopotamia", "depto": "ANTIOQUIA", "cod_dane": "054002001", "municipio": "La Union", "tipo": "VEREDA"}, "geometry": {"type": "Point", "coordinates": [-75.3197337413776, 5.88706512349255]}}, {"type": "Feature", "properties": {"nombre": "Minas", "depto": "ANTIOQUIA", "cod_dane": "052822003", "municipio": "Fredonia", "tipo": "VEREDA"}, "geometry": {"type": "Point", "coordinates": [-75.7411278737009, 5.92841216102041]}}, {"type": "Feature", "properties": {"nombre": "Montebello", "depto": "ANTIOQUIA", "cod_dane": "054671000", "municipio": "Montebello", "tipo": "CABECERA"}, "geometry": {"type": "Point", "coordinates": [-75.5271317145085, 5.94937090587884]}}, {"type": "Feature", "properties": {"nombre": "Monteloro (La Josefina)", "depto": "ANTIOQUIA", "cod_dane": "056602011", "municipio": "San Luis", "tipo": "VEREDA"}, "geometry": {"type": "Point", "coordinates": [-74.9130524490389, 5.97755824570767]}}, {"type": "Feature", "properties": {"nombre": "Mulatos", "depto": "ANTIOQUIA", "cod_dane": "054902002", "municipio": "Necocli", "tipo": "VEREDA"}, "geometry": {"type": "Point", "coordinates": [-76.7224100185456, 8.63780142696432]}}, {"type": "Feature", "properties": {"nombre": "Murindo", "depto": "ANTIOQUIA", "cod_dane": "054751000", "municipio": "Murindo", "tipo": "CABECERA"}, "geometry": {"type": "Point", "coordinates": [-76.8233318159483, 6.97974722528475]}}, {"type": "Feature", "properties": {"nombre": "Murri", "depto": "ANTIOQUIA", "cod_dane": "052842004", "municipio": "Frontino", "tipo": "VEREDA"}, "geometry": {"type": "Point", "coordinates": [-76.3712225262348, 6.7467282020293]}}, {"type": "Feature", "properties": {"nombre": "Mutata", "depto": "ANTIOQUIA", "cod_dane": "054801000", "municipio": "Mutata", "tipo": "CABECERA"}, "geometry": {"type": "Point", "coordinates": [-76.4398898367459, 7.24687140170167]}}, {"type": "Feature", "properties": {"nombre": "Narices (Puerto Garza)", "depto": "ANTIOQUIA", "cod_dane": "056492005", "municipio": "San Carlos", "tipo": "VEREDA"}, "geometry": {"type": "Point", "coordinates": [-74.7590861859055, 6.20989084653271]}}, {"type": "Feature", "properties": {"nombre": "Narino", "depto": "ANTIOQUIA", "cod_dane": "054831000", "municipio": "Narino", "tipo": "CABECERA"}, "geometry": {"type": "Point", "coordinates": [-75.1783118171216, 5.61380668259505]}}, {"type": "Feature", "properties": {"nombre": "Nechi", "depto": "ANTIOQUIA", "cod_dane": "054951000", "municipio": "Nechi", "tipo": "CABECERA"}, "geometry": {"type": "Point", "coordinates": [-74.7801984667394, 8.09087730384297]}}, {"type": "Feature", "properties": {"nombre": "Necocli", "depto": "ANTIOQUIA", "cod_dane": "054901000", "municipio": "Necocli", "tipo": "CABECERA"}, "geometry": {"type": "Point", "coordinates": [-76.7883125340093, 8.42857159003953]}}, {"type": "Feature", "properties": {"nombre": "Nueva Colonia", "depto": "ANTIOQUIA", "cod_dane": "058372002", "municipio": "Turbo", "tipo": "VEREDA"}, "geometry": {"type": "Point", "coordinates": [-76.7197738397693, 7.93784603973358]}}, {"type": "Feature", "properties": {"nombre": "Nuevo Antioquia", "depto": "ANTIOQUIA", "cod_dane": "058372018", "municipio": "TurboNUEVO ", "tipo": "VEREDA"}, "geometry": {"type": "Point", "coordinates": [-76.5205925246957, 8.04054706260752]}}, {"type": "Feature", "properties": {"nombre": "Nuevo Oriente", "depto": "ANTIOQUIA", "cod_dane": "058372004", "municipio": "Turbo", "tipo": "VEREDA"}, "geometry": {"type": "Point", "coordinates": [-76.7130910409718, 7.51988225609885]}}, {"type": "Feature", "properties": {"nombre": "Nutibara", "depto": "ANTIOQUIA", "cod_dane": "052842006", "municipio": "Frontino", "tipo": "VEREDA"}, "geometry": {"type": "Point", "coordinates": [-76.2512085512821, 6.80701323407138]}}, {"type": "Feature", "properties": {"nombre": "Ochali", "depto": "ANTIOQUIA", "cod_dane": "058872006", "municipio": "Yarumal", "tipo": "VEREDA"}, "geometry": {"type": "Point", "coordinates": [-75.6152326049658, 7.006472419871]}}, {"type": "Feature", "properties": {"nombre": "Olaya", "depto": "ANTIOQUIA", "cod_dane": "055011000", "municipio": "Olaya", "tipo": "CABECERA"}, "geometry": {"type": "Point", "coordinates": [-75.8159727948516, 6.63034530373349]}}, {"type": "Feature", "properties": {"nombre": "Opogado", "depto": "ANTIOQUIA", "cod_dane": "054752001", "municipio": "Murindo", "tipo": "VEREDA"}, "geometry": {"type": "Point", "coordinates": [-76.8807999114186, 6.81733784963813]}}, {"type": "Feature", "properties": {"nombre": "Ovejas (Capilla)", "depto": "ANTIOQUIA", "cod_dane": "056642005", "municipio": "San Pedro", "tipo": "VEREDA"}, "geometry": {"type": "Point", "coordinates": [-75.649889646052, 6.39831338483942]}}, {"type": "Feature", "properties": {"nombre": "Palanca", "depto": "ANTIOQUIA", "cod_dane": "051542008", "municipio": "Caucasia", "tipo": "VEREDA"}, "geometry": {"type": "Point", "coordinates": [-75.0215243858376, 8.01546870956756]}}, {"type": "Feature", "properties": {"nombre": "Palermo", "depto": "ANTIOQUIA", "cod_dane": "057892001", "municipio": "Tamesis", "tipo": "VEREDA"}, "geometry": {"type": "Point", "coordinates": [-75.6987717958239, 5.73578467347859]}}, {"type": "Feature", "properties": {"nombre": "Palmitas", "depto": "ANTIOQUIA", "cod_dane": "050012001", "municipio": "Medellin", "tipo": "VEREDA"}, "geometry": {"type": "Point", "coordinates": [-75.6941739958096, 6.346799538002]}}, {"type": "Feature", "properties": {"nombre": "Palo Blanco", "depto": "ANTIOQUIA", "cod_dane": "058732009", "municipio": "Vigia Del Fuerte", "tipo": "VEREDA"}, "geometry": {"type": "Point", "coordinates": [-76.7040516317874, 6.17134779248061]}}, {"type": "Feature", "properties": {"nombre": "Palomar", "depto": "ANTIOQUIA", "cod_dane": "051542009", "municipio": "Caucasia", "tipo": "VEREDA"}, "geometry": {"type": "Point", "coordinates": [-74.9793325053895, 8.00512521765022]}}, {"type": "Feature", "properties": {"nombre": "Pan De Azucar", "depto": "ANTIOQUIA", "cod_dane": "056312008", "municipio": "Sabaneta", "tipo": "VEREDA"}, "geometry": {"type": "Point", "coordinates": [-75.6335638694002, 6.14243774816257]}}, {"type": "Feature", "properties": {"nombre": "Pantanillo", "depto": "ANTIOQUIA", "cod_dane": "050022002", "municipio": "Abejorral", "tipo": "VEREDA"}, "geometry": {"type": "Point", "coordinates": [-75.4936729392741, 5.73446663088833]}}, {"type": "Feature", "properties": {"nombre": "Pascuita", "depto": "ANTIOQUIA", "cod_dane": "053612004", "municipio": "Ituango", "tipo": "VEREDA"}, "geometry": {"type": "Point", "coordinates": [-75.6571810644792, 7.19409366536953]}}, {"type": "Feature", "properties": {"nombre": "Pato", "depto": "ANTIOQUIA", "cod_dane": "058952004", "municipio": "Zaragoza", "tipo": "VEREDA"}, "geometry": {"type": "Point", "coordinates": [-74.9266620436786, 7.49906537413253]}}, {"type": "Feature", "properties": {"nombre": "Pavarando Grande", "depto": "ANTIOQUIA", "cod_dane": "054802004", "municipio": "Mutata", "tipo": "VEREDA"}, "geometry": {"type": "Point", "coordinates": [-76.564529047449, 7.27891319330899]}}, {"type": "Feature", "properties": {"nombre": "Pavarandocito", "depto": "ANTIOQUIA", "cod_dane": "054802002", "municipio": "Mutata", "tipo": "VEREDA"}, "geometry": {"type": "Point", "coordinates": [-76.5287718781491, 7.29858151889767]}}, {"type": "Feature", "properties": {"nombre": "Penalisa", "depto": "ANTIOQUIA", "cod_dane": "056422010", "municipio": "Salgar", "tipo": "VEREDA"}, "geometry": {"type": "Point", "coordinates": [-75.8628628163537, 5.9368208625881]}}, {"type": "Feature", "properties": {"nombre": "Penol", "depto": "ANTIOQUIA", "cod_dane": "055411000", "municipio": "Penol", "tipo": "CABECERA"}, "geometry": {"type": "Point", "coordinates": [-75.2159170307148, 6.22459799686028]}}, {"type": "Feature", "properties": {"nombre": "Peque", "depto": "ANTIOQUIA", "cod_dane": "055431000", "municipio": "Peque", "tipo": "CABECERA"}, "geometry": {"type": "Point", "coordinates": [-75.9116909365311, 7.02462109972663]}}, {"type": "Feature", "properties": {"nombre": "Piamonte (San Rafael)", "depto": "ANTIOQUIA", "cod_dane": "051202010", "municipio": "Caceres", "tipo": "VEREDA"}, "geometry": {"type": "Point", "coordinates": [-75.2092228185829, 7.78551637772111]}}, {"type": "Feature", "properties": {"nombre": "Piedras Blancas", "depto": "ANTIOQUIA", "cod_dane": "051472003", "municipio": "Carepa", "tipo": "VEREDA"}, "geometry": {"type": "Point", "coordinates": [-76.5557305335047, 7.75110591694775]}}, {"type": "Feature", "properties": {"nombre": "Porcecito", "depto": "ANTIOQUIA", "cod_dane": "056902003", "municipio": "Santo Domingo", "tipo": "VEREDA"}, "geometry": {"type": "Point", "coordinates": [-75.2081134862167, 6.55091976775518]}}, {"type": "Feature", "properties": {"nombre": "Portachuelo", "depto": "ANTIOQUIA", "cod_dane": "050312004", "municipio": "Amalfi", "tipo": "VEREDA"}, "geometry": {"type": "Point", "coordinates": [-74.9295579699915, 6.80364770142218]}}, {"type": "Feature", "properties": {"nombre": "Primavera", "depto": "ANTIOQUIA", "cod_dane": "051292006", "municipio": "Caldas", "tipo": "VEREDA"}, "geometry": {"type": "Point", "coordinates": [-75.6386963470464, 6.07283586289115]}}, {"type": "Feature", "properties": {"nombre": "Providencia", "depto": "ANTIOQUIA", "cod_dane": "056702002", "municipio": "San Roque", "tipo": "VEREDA"}, "geometry": {"type": "Point", "coordinates": [-74.9081182826517, 6.51993290326055]}}, {"type": "Feature", "properties": {"nombre": "Pueblito", "depto": "ANTIOQUIA", "cod_dane": "053472002", "municipio": "Heliconia", "tipo": "VEREDA"}, "geometry": {"type": "Point", "coordinates": [-75.725472916995, 6.17030156869074]}}, {"type": "Feature", "properties": {"nombre": "Pueblo Bello", "depto": "ANTIOQUIA", "cod_dane": "058372012", "municipio": "Turbo", "tipo": "VEREDA"}, "geometry": {"type": "Point", "coordinates": [-76.5290136293953, 8.20705799992823]}}, {"type": "Feature", "properties": {"nombre": "Pueblo Nuevo", "depto": "ANTIOQUIA", "cod_dane": "054902003", "municipio": "Necocli", "tipo": "VEREDA"}, "geometry": {"type": "Point", "coordinates": [-76.6471776678199, 8.41691751556174]}}, {"type": "Feature", "properties": {"nombre": "Pueblo Viejo", "depto": "ANTIOQUIA", "cod_dane": "053802002", "municipio": "La Estrella", "tipo": "VEREDA"}, "geometry": {"type": "Point", "coordinates": [-75.642557489084, 6.14118734892424]}}, {"type": "Feature", "properties": {"nombre": "Pueblorrico", "depto": "ANTIOQUIA", "cod_dane": "055761000", "municipio": "Pueblorrico", "tipo": "CABECERA"}, "geometry": {"type": "Point", "coordinates": [-75.8423119016607, 5.79659422952517]}}, {"type": "Feature", "properties": {"nombre": "Puerto Antioquia", "depto": "ANTIOQUIA", "cod_dane": "057902003", "municipio": "TarazaPUERTO ", "tipo": "VEREDA"}, "geometry": {"type": "Point", "coordinates": [-75.3449398927234, 7.53934797744317]}}, {"type": "Feature", "properties": {"nombre": "Puerto Antioquia", "depto": "ANTIOQUIA", "cod_dane": "058732006", "municipio": "Vigia Del FuertePUERTO ", "tipo": "VEREDA"}, "geometry": {"type": "Point", "coordinates": [-76.9733294283593, 6.81403594440822]}}, {"type": "Feature", "properties": {"nombre": "Puerto Belgica", "depto": "ANTIOQUIA", "cod_dane": "051202006", "municipio": "Caceres", "tipo": "VEREDA"}, "geometry": {"type": "Point", "coordinates": [-75.2867238686471, 7.67033022386459]}}, {"type": "Feature", "properties": {"nombre": "Puerto Berrio", "depto": "ANTIOQUIA", "cod_dane": "055791000", "municipio": "Puerto Berrio", "tipo": "CABECERA"}, "geometry": {"type": "Point", "coordinates": [-74.4096788067394, 6.4883526693225]}}, {"type": "Feature", "properties": {"nombre": "Puerto Caribe", "depto": "ANTIOQUIA", "cod_dane": "050452006", "municipio": "Apartado", "tipo": "VEREDA"}, "geometry": {"type": "Point", "coordinates": [-76.7413288416318, 7.90915137779136]}}, {"type": "Feature", "properties": {"nombre": "Puerto Claver", "depto": "ANTIOQUIA", "cod_dane": "052502002", "municipio": "El Bagre", "tipo": "VEREDA"}, "geometry": {"type": "Point", "coordinates": [-74.7565617305694, 7.71373253591346]}}, {"type": "Feature", "properties": {"nombre": "Puerto Gloria-Caceri", "depto": "ANTIOQUIA", "cod_dane": "051542023", "municipio": "Caucasia", "tipo": "VEREDA"}, "geometry": {"type": "Point", "coordinates": [-74.9339654116276, 7.80938930831807]}}, {"type": "Feature", "properties": {"nombre": "Puerto Lopez", "depto": "ANTIOQUIA", "cod_dane": "052502004", "municipio": "El Bagre", "tipo": "VEREDA"}, "geometry": {"type": "Point", "coordinates": [-74.6927694533265, 7.43968392104433]}}, {"type": "Feature", "properties": {"nombre": "Puerto Murillo", "depto": "ANTIOQUIA", "cod_dane": "055792001", "municipio": "Puerto Berrio", "tipo": "VEREDA"}, "geometry": {"type": "Point", "coordinates": [-74.3975138064127, 6.60770588174451]}}, {"type": "Feature", "properties": {"nombre": "Puerto Perales Nuevo", "depto": "ANTIOQUIA", "cod_dane": "055912002", "municipio": "Puerto Triunfo", "tipo": "VEREDA"}, "geometry": {"type": "Point", "coordinates": [-74.5906644134137, 5.99212445763776]}}, {"type": "Feature", "properties": {"nombre": "Puerto Triana", "depto": "ANTIOQUIA", "cod_dane": "051542020", "municipio": "Caucasia", "tipo": "VEREDA"}, "geometry": {"type": "Point", "coordinates": [-74.8965305218762, 7.68609599698581]}}, {"type": "Feature", "properties": {"nombre": "Puerto Triunfo", "depto": "ANTIOQUIA", "cod_dane": "055911000", "municipio": "Puerto Triunfo", "tipo": "CABECERA"}, "geometry": {"type": "Point", "coordinates": [-74.6421615901429, 5.88727735452039]}}, {"type": "Feature", "properties": {"nombre": "Puerto Valdivia", "depto": "ANTIOQUIA", "cod_dane": "058542002", "municipio": "Valdivia", "tipo": "VEREDA"}, "geometry": {"type": "Point", "coordinates": [-75.3973963848922, 7.29190628126208]}}, {"type": "Feature", "properties": {"nombre": "Puerto Venus (Samana)", "depto": "ANTIOQUIA", "cod_dane": "054832001", "municipio": "Narino", "tipo": "VEREDA"}, "geometry": {"type": "Point", "coordinates": [-75.1967866722544, 5.52420514925414]}}, {"type": "Feature", "properties": {"nombre": "Rafael Uribe Uribe (El Crucero)", "depto": "ANTIOQUIA", "cod_dane": "053902001", "municipio": "La Pintada", "tipo": "VEREDA"}, "geometry": {"type": "Point", "coordinates": [-75.6095493805347, 5.74448913333543]}}, {"type": "Feature", "properties": {"nombre": "Remedios", "depto": "ANTIOQUIA", "cod_dane": "056041000", "municipio": "Remedios", "tipo": "CABECERA"}, "geometry": {"type": "Point", "coordinates": [-74.6953439257394, 7.03080569096481]}}, {"type": "Feature", "properties": {"nombre": "Retiro", "depto": "ANTIOQUIA", "cod_dane": "056071000", "municipio": "Retiro", "tipo": "CABECERA"}, "geometry": {"type": "Point", "coordinates": [-75.5053665795776, 6.06371517814947]}}, {"type": "Feature", "properties": {"nombre": "Rio Man", "depto": "ANTIOQUIA", "cod_dane": "051202012", "municipio": "Caceres", "tipo": "VEREDA"}, "geometry": {"type": "Point", "coordinates": [-75.2116583391893, 7.94736049859293]}}, {"type": "Feature", "properties": {"nombre": "Riogrande", "depto": "ANTIOQUIA", "cod_dane": "058372008", "municipio": "Turbo", "tipo": "VEREDA"}, "geometry": {"type": "Point", "coordinates": [-76.627870187277, 7.93191612124815]}}, {"type": "Feature", "properties": {"nombre": "Rionegro", "depto": "ANTIOQUIA", "cod_dane": "056151000", "municipio": "Rionegro", "tipo": "CABECERA"}, "geometry": {"type": "Point", "coordinates": [-75.3794825321085, 6.14911743124177]}}, {"type": "Feature", "properties": {"nombre": "Sabaletas", "depto": "ANTIOQUIA", "cod_dane": "054672001", "municipio": "Montebello", "tipo": "VEREDA"}, "geometry": {"type": "Point", "coordinates": [-75.5484268598246, 5.92040855067571]}}, {"type": "Feature", "properties": {"nombre": "Sabanalarga", "depto": "ANTIOQUIA", "cod_dane": "056281000", "municipio": "Sabanalarga", "tipo": "CABECERA"}, "geometry": {"type": "Point", "coordinates": [-75.8175432664051, 6.85633667511873]}}, {"type": "Feature", "properties": {"nombre": "Sabaneta", "depto": "ANTIOQUIA", "cod_dane": "056311000", "municipio": "Sabaneta", "tipo": "CABECERA"}, "geometry": {"type": "Point", "coordinates": [-75.6187243931183, 6.15504548085055]}}, {"type": "Feature", "properties": {"nombre": "Salazar", "depto": "ANTIOQUIA", "cod_dane": "052092007", "municipio": "Concordia", "tipo": "VEREDA"}, "geometry": {"type": "Point", "coordinates": [-75.9129922629699, 6.04140885389572]}}, {"type": "Feature", "properties": {"nombre": "Salgar", "depto": "ANTIOQUIA", "cod_dane": "056421000", "municipio": "Salgar", "tipo": "CABECERA"}, "geometry": {"type": "Point", "coordinates": [-75.9798178914204, 5.96642601813334]}}, {"type": "Feature", "properties": {"nombre": "Samana Del Norte", "depto": "ANTIOQUIA", "cod_dane": "056492002", "municipio": "San Carlos", "tipo": "VEREDA"}, "geometry": {"type": "Point", "coordinates": [-74.8390338542817, 6.13169594921741]}}, {"type": "Feature", "properties": {"nombre": "San Alejandro", "depto": "ANTIOQUIA", "cod_dane": "058732004", "municipio": "Vigia Del Fuerte", "tipo": "VEREDA"}, "geometry": {"type": "Point", "coordinates": [-76.8761389711667, 6.73059540368126]}}, {"type": "Feature", "properties": {"nombre": "San Andres", "depto": "ANTIOQUIA", "cod_dane": "056471000", "municipio": "San Andres", "tipo": "CABECERA"}, "geometry": {"type": "Point", "coordinates": [-75.6790272477675, 6.91636792458413]}}, {"type": "Feature", "properties": {"nombre": "San Antonio De Padua", "depto": "ANTIOQUIA", "cod_dane": "058732001", "municipio": "Vigia Del Fuerte", "tipo": "VEREDA"}, "geometry": {"type": "Point", "coordinates": [-76.7649217840807, 6.28937521963024]}}, {"type": "Feature", "properties": {"nombre": "San Antonio De Prado", "depto": "ANTIOQUIA", "cod_dane": "050012002", "municipio": "Medellin", "tipo": "VEREDA"}, "geometry": {"type": "Point", "coordinates": [-75.6525651128007, 6.18368682616474]}}, {"type": "Feature", "properties": {"nombre": "San Carlos", "depto": "ANTIOQUIA", "cod_dane": "056491000", "municipio": "San Carlos", "tipo": "CABECERA"}, "geometry": {"type": "Point", "coordinates": [-74.9967905437133, 6.190785302514]}}, {"type": "Feature", "properties": {"nombre": "San Cristobal", "depto": "ANTIOQUIA", "cod_dane": "050012003", "municipio": "Medellin", "tipo": "VEREDA"}, "geometry": {"type": "Point", "coordinates": [-75.6354950673353, 6.28108196698825]}}, {"type": "Feature", "properties": {"nombre": "San Diego (Placita)", "depto": "ANTIOQUIA", "cod_dane": "054112004", "municipio": "Liborina", "tipo": "VEREDA"}, "geometry": {"type": "Point", "coordinates": [-75.7789089086069, 6.72278161043935]}}, {"type": "Feature", "properties": {"nombre": "San Francisco", "depto": "ANTIOQUIA", "cod_dane": "056521000", "municipio": "San Francisco", "tipo": "CABECERA"}, "geometry": {"type": "Point", "coordinates": [-75.105402562028, 5.96650548421773]}}, {"type": "Feature", "properties": {"nombre": "San Gregorio", "depto": "ANTIOQUIA", "cod_dane": "051012006", "municipio": "Ciudad Bolivar", "tipo": "VEREDA"}, "geometry": {"type": "Point", "coordinates": [-75.9749720088488, 5.90171081658575]}}, {"type": "Feature", "properties": {"nombre": "San Isidro", "depto": "ANTIOQUIA", "cod_dane": "056862004", "municipio": "Santa.Rosa de Osos", "tipo": "VEREDA"}, "geometry": {"type": "Point", "coordinates": [-75.3395547674001, 6.56789272512691]}}, {"type": "Feature", "properties": {"nombre": "San Jeronimo", "depto": "ANTIOQUIA", "cod_dane": "056561000", "municipio": "San Jeronimo", "tipo": "CABECERA"}, "geometry": {"type": "Point", "coordinates": [-75.7309828601769, 6.44544628529391]}}, {"type": "Feature", "properties": {"nombre": "San Jose", "depto": "ANTIOQUIA", "cod_dane": "053762003", "municipio": "La Ceja", "tipo": "VEREDA"}, "geometry": {"type": "Point", "coordinates": [-75.4921962530871, 5.96805639082054]}}, {"type": "Feature", "properties": {"nombre": "San Jose", "depto": "ANTIOQUIA", "cod_dane": "050342003", "municipio": "Andes", "tipo": "VEREDA"}, "geometry": {"type": "Point", "coordinates": [-75.8737813464683, 5.73987286600573]}}, {"type": "Feature", "properties": {"nombre": "San Jose De Apartado", "depto": "ANTIOQUIA", "cod_dane": "050452001", "municipio": "Apartado", "tipo": "VEREDA"}, "geometry": {"type": "Point", "coordinates": [-76.587486652981, 7.86753878531169]}}, {"type": "Feature", "properties": {"nombre": "San Jose De La Montana", "depto": "ANTIOQUIA", "cod_dane": "056581000", "municipio": "San Jose de La Montana", "tipo": "CABECERA"}, "geometry": {"type": "Point", "coordinates": [-75.6874703848371, 6.8525350333732]}}, {"type": "Feature", "properties": {"nombre": "San Jose De Urama (Uramagrande)", "depto": "ANTIOQUIA", "cod_dane": "052342004", "municipio": "Dabeiba", "tipo": "VEREDA"}, "geometry": {"type": "Point", "coordinates": [-76.1481576743232, 7.02030723019379]}}, {"type": "Feature", "properties": {"nombre": "San Jose Del Nus (San Jose De Nuestra Senora)", "depto": "ANTIOQUIA", "cod_dane": "054252005", "municipio": "Maceo", "tipo": "VEREDA"}, "geometry": {"type": "Point", "coordinates": [-74.8261376894358, 6.4975509288807]}}, {"type": "Feature", "properties": {"nombre": "San Jose Nuestra Senora", "depto": "ANTIOQUIA", "cod_dane": "056702003", "municipio": "San Roque", "tipo": "VEREDA"}, "geometry": {"type": "Point", "coordinates": [-74.8303853219634, 6.49747023375656]}}, {"type": "Feature", "properties": {"nombre": "San Juan De Uraba", "depto": "ANTIOQUIA", "cod_dane": "056591000", "municipio": "San Juan de Uraba", "tipo": "CABECERA"}, "geometry": {"type": "Point", "coordinates": [-76.5310152664939, 8.76287600989661]}}, {"type": "Feature", "properties": {"nombre": "San Luis", "depto": "ANTIOQUIA", "cod_dane": "056601000", "municipio": "San Luis", "tipo": "CABECERA"}, "geometry": {"type": "Point", "coordinates": [-74.9977937425493, 6.04567375774417]}}, {"type": "Feature", "properties": {"nombre": "San Matias", "depto": "ANTIOQUIA", "cod_dane": "053102002", "municipio": "Gomez Plata", "tipo": "VEREDA"}, "geometry": {"type": "Point", "coordinates": [-75.19590941116, 6.77272059968398]}}, {"type": "Feature", "properties": {"nombre": "San Miguel", "depto": "ANTIOQUIA", "cod_dane": "058732005", "municipio": "Vigia Del Fuerte", "tipo": "VEREDA"}, "geometry": {"type": "Point", "coordinates": [-76.8295924515743, 6.52927958733661]}}, {"type": "Feature", "properties": {"nombre": "San Miguel", "depto": "ANTIOQUIA", "cod_dane": "057562005", "municipio": "Sonson", "tipo": "VEREDA"}, "geometry": {"type": "Point", "coordinates": [-74.7313209219461, 5.73721173244156]}}, {"type": "Feature", "properties": {"nombre": "San Miguel Del Tigre", "depto": "ANTIOQUIA", "cod_dane": "058932003", "municipio": "Yondo", "tipo": "VEREDA"}, "geometry": {"type": "Point", "coordinates": [-73.9526680958261, 7.09188556348716]}}, {"type": "Feature", "properties": {"nombre": "San Nicolas", "depto": "ANTIOQUIA", "cod_dane": "057612005", "municipio": "Sopetran", "tipo": "VEREDA"}, "geometry": {"type": "Point", "coordinates": [-75.8246320019578, 6.48118341081016]}}, {"type": "Feature", "properties": {"nombre": "San Pablo", "depto": "ANTIOQUIA", "cod_dane": "056862006", "municipio": "Santa.Rosa de Osos", "tipo": "VEREDA"}, "geometry": {"type": "Point", "coordinates": [-75.2523575507948, 6.60617061433931]}}, {"type": "Feature", "properties": {"nombre": "San Pablo", "depto": "ANTIOQUIA", "cod_dane": "057892002", "municipio": "Tamesis", "tipo": "VEREDA"}, "geometry": {"type": "Point", "coordinates": [-75.6855071530436, 5.60652525039753]}}, {"type": "Feature", "properties": {"nombre": "San Pascual", "depto": "ANTIOQUIA", "cod_dane": "051382005", "municipio": "Canasgordas", "tipo": "VEREDA"}, "geometry": {"type": "Point", "coordinates": [-76.0508633115723, 6.84941747774715]}}, {"type": "Feature", "properties": {"nombre": "San Pedro", "depto": "ANTIOQUIA", "cod_dane": "056641000", "municipio": "San Pedro", "tipo": "CABECERA"}, "geometry": {"type": "Point", "coordinates": [-75.5641641872163, 6.46398472364737]}}, {"type": "Feature", "properties": {"nombre": "San Pedro De Uraba", "depto": "ANTIOQUIA", "cod_dane": "056651000", "municipio": "San Pedro De Uraba", "tipo": "CABECERA"}, "geometry": {"type": "Point", "coordinates": [-76.3832572497856, 8.27924519358654]}}, {"type": "Feature", "properties": {"nombre": "San Rafael", "depto": "ANTIOQUIA", "cod_dane": "056671000", "municipio": "San Rafael", "tipo": "CABECERA"}, "geometry": {"type": "Point", "coordinates": [-75.0312989199697, 6.29658026415594]}}, {"type": "Feature", "properties": {"nombre": "San Roque", "depto": "ANTIOQUIA", "cod_dane": "056701000", "municipio": "San Roque", "tipo": "CABECERA"}, "geometry": {"type": "Point", "coordinates": [-75.0229162804076, 6.48849501528156]}}, {"type": "Feature", "properties": {"nombre": "San Vicente", "depto": "ANTIOQUIA", "cod_dane": "056741000", "municipio": "San Vicente", "tipo": "CABECERA"}, "geometry": {"type": "Point", "coordinates": [-75.3360320111486, 6.28852288477814]}}, {"type": "Feature", "properties": {"nombre": "San Vicente Del Congo", "depto": "ANTIOQUIA", "cod_dane": "058372005", "municipio": "Turbo", "tipo": "VEREDA"}, "geometry": {"type": "Point", "coordinates": [-76.4586628738516, 8.23441736807054]}}, {"type": "Feature", "properties": {"nombre": "Santa Ana", "depto": "ANTIOQUIA", "cod_dane": "053612005", "municipio": "Ituango", "tipo": "VEREDA"}, "geometry": {"type": "Point", "coordinates": [-75.8725533504531, 7.16562363630071]}}, {"type": "Feature", "properties": {"nombre": "Santa Ana", "depto": "ANTIOQUIA", "cod_dane": "053132001", "municipio": "Granada", "tipo": "VEREDA"}, "geometry": {"type": "Point", "coordinates": [-75.1042199998815, 6.07603481658237]}}, {"type": "Feature", "properties": {"nombre": "Santa Barbara", "depto": "ANTIOQUIA", "cod_dane": "056791000", "municipio": "Santa Barbara", "tipo": "CABECERA"}, "geometry": {"type": "Point", "coordinates": [-75.5700230814694, 5.87707888478825]}}, {"type": "Feature", "properties": {"nombre": "Santa Catalina", "depto": "ANTIOQUIA", "cod_dane": "056652002", "municipio": "San Pedro De Uraba", "tipo": "VEREDA"}, "geometry": {"type": "Point", "coordinates": [-76.3199346912223, 8.40004753188145]}}, {"type": "Feature", "properties": {"nombre": "Santa Elena", "depto": "ANTIOQUIA", "cod_dane": "050012004", "municipio": "Medellin", "tipo": "VEREDA"}, "geometry": {"type": "Point", "coordinates": [-75.5014140112607, 6.21334050429134]}}, {"type": "Feature", "properties": {"nombre": "Santa Ines", "depto": "ANTIOQUIA", "cod_dane": "050342012", "municipio": "Andes", "tipo": "VEREDA"}, "geometry": {"type": "Point", "coordinates": [-75.9031523692968, 5.56651793612033]}}, {"type": "Feature", "properties": {"nombre": "Santa Isabel", "depto": "ANTIOQUIA", "cod_dane": "056042003", "municipio": "Remedios", "tipo": "VEREDA"}, "geometry": {"type": "Point", "coordinates": [-74.7460765821264, 6.94816552051561]}}, {"type": "Feature", "properties": {"nombre": "Santa Lucia", "depto": "ANTIOQUIA", "cod_dane": "053612006", "municipio": "Ituango", "tipo": "VEREDA"}, "geometry": {"type": "Point", "coordinates": [-75.8285969638737, 7.31672395719243]}}, {"type": "Feature", "properties": {"nombre": "Santa Rita", "depto": "ANTIOQUIA", "cod_dane": "050342006", "municipio": "Andes", "tipo": "VEREDA"}, "geometry": {"type": "Point", "coordinates": [-75.9199803004543, 5.61615718605522]}}, {"type": "Feature", "properties": {"nombre": "Santa Rita De Ituango", "depto": "ANTIOQUIA", "cod_dane": "053612007", "municipio": "Ituango", "tipo": "VEREDA"}, "geometry": {"type": "Point", "coordinates": [-75.6192187224762, 7.32359845408751]}}, {"type": "Feature", "properties": {"nombre": "Santa Rosa De Osos", "depto": "ANTIOQUIA", "cod_dane": "056861000", "municipio": "Santa.Rosa de Osos", "tipo": "CABECERA"}, "geometry": {"type": "Point", "coordinates": [-75.464015785969, 6.64522205935596]}}, {"type": "Feature", "properties": {"nombre": "Santa Rosita", "depto": "ANTIOQUIA", "cod_dane": "051542012", "municipio": "Caucasia", "tipo": "VEREDA"}, "geometry": {"type": "Point", "coordinates": [-75.3284975163742, 7.92449713202547]}}, {"type": "Feature", "properties": {"nombre": "Santafe De Antioquia", "depto": "ANTIOQUIA", "cod_dane": "050421000", "municipio": "Santafe de AntioquiaSANTAFE DE ", "tipo": "VEREDA"}, "geometry": {"type": "Point", "coordinates": [-75.8301733363077, 6.5619461238027]}}, {"type": "Feature", "properties": {"nombre": "Santiago", "depto": "ANTIOQUIA", "cod_dane": "056902004", "municipio": "Santo Domingo", "tipo": "VEREDA"}, "geometry": {"type": "Point", "coordinates": [-75.1612871300448, 6.54539998144979]}}, {"type": "Feature", "properties": {"nombre": "Santo Domingo", "depto": "ANTIOQUIA", "cod_dane": "056901000", "municipio": "Santo Domingo", "tipo": "CABECERA"}, "geometry": {"type": "Point", "coordinates": [-75.1687919623661, 6.47531781409649]}}, {"type": "Feature", "properties": {"nombre": "Segovia", "depto": "ANTIOQUIA", "cod_dane": "057361000", "municipio": "Segovia", "tipo": "CABECERA"}, "geometry": {"type": "Point", "coordinates": [-74.7027112688494, 7.08273000689883]}}, {"type": "Feature", "properties": {"nombre": "Sevilla", "depto": "ANTIOQUIA", "cod_dane": "052402003", "municipio": "Ebejico", "tipo": "VEREDA"}, "geometry": {"type": "Point", "coordinates": [-75.7880633911867, 6.29731385786677]}}, {"type": "Feature", "properties": {"nombre": "Sitio Viejo", "depto": "ANTIOQUIA", "cod_dane": "058092004", "municipio": "Titiribi", "tipo": "VEREDA"}, "geometry": {"type": "Point", "coordinates": [-75.7944490008693, 6.07734111688186]}}, {"type": "Feature", "properties": {"nombre": "Sonson", "depto": "ANTIOQUIA", "cod_dane": "057561000", "municipio": "Sonson", "tipo": "CABECERA"}, "geometry": {"type": "Point", "coordinates": [-75.3135977929115, 5.7153359931465]}}, {"type": "Feature", "properties": {"nombre": "Sopetran", "depto": "ANTIOQUIA", "cod_dane": "057611000", "municipio": "Sopetran", "tipo": "CABECERA"}, "geometry": {"type": "Point", "coordinates": [-75.7494816180367, 6.50448120753658]}}, {"type": "Feature", "properties": {"nombre": "Sucre", "depto": "ANTIOQUIA", "cod_dane": "055012002", "municipio": "Olaya", "tipo": "VEREDA"}, "geometry": {"type": "Point", "coordinates": [-75.799282046295, 6.59757221605754]}}, {"type": "Feature", "properties": {"nombre": "Tabacal", "depto": "ANTIOQUIA", "cod_dane": "051132003", "municipio": "Buritica", "tipo": "VEREDA"}, "geometry": {"type": "Point", "coordinates": [-75.9178839282512, 6.80873977967967]}}, {"type": "Feature", "properties": {"nombre": "Tadia", "depto": "ANTIOQUIA", "cod_dane": "054752006", "municipio": "Murindo", "tipo": "VEREDA"}, "geometry": {"type": "Point", "coordinates": [-76.8139885544699, 6.8618352900432]}}, {"type": "Feature", "properties": {"nombre": "Tamesis", "depto": "ANTIOQUIA", "cod_dane": "057891000", "municipio": "Tamesis", "tipo": "CABECERA"}, "geometry": {"type": "Point", "coordinates": [-75.7173488570793, 5.66808053095301]}}, {"type": "Feature", "properties": {"nombre": "Taparto", "depto": "ANTIOQUIA", "cod_dane": "050342007", "municipio": "Andes", "tipo": "VEREDA"}, "geometry": {"type": "Point", "coordinates": [-75.9683454487626, 5.70397619810608]}}, {"type": "Feature", "properties": {"nombre": "Taraza", "depto": "ANTIOQUIA", "cod_dane": "057901000", "municipio": "Taraza", "tipo": "CABECERA"}, "geometry": {"type": "Point", "coordinates": [-75.4033647649312, 7.58517586508343]}}, {"type": "Feature", "properties": {"nombre": "Tarso", "depto": "ANTIOQUIA", "cod_dane": "057921000", "municipio": "Tarso", "tipo": "CABECERA"}, "geometry": {"type": "Point", "coordinates": [-75.8258972760576, 5.86803286168096]}}, {"type": "Feature", "properties": {"nombre": "Tie", "depto": "ANTIOQUIA", "cod_dane": "058372006", "municipio": "Turbo", "tipo": "VEREDA"}, "geometry": {"type": "Point", "coordinates": [-76.7571186276939, 8.23902456954254]}}, {"type": "Feature", "properties": {"nombre": "Titiribi", "depto": "ANTIOQUIA", "cod_dane": "058091000", "municipio": "Titiribi", "tipo": "CABECERA"}, "geometry": {"type": "Point", "coordinates": [-75.7927899441516, 6.06681569988375]}}, {"type": "Feature", "properties": {"nombre": "Toledo", "depto": "ANTIOQUIA", "cod_dane": "058191000", "municipio": "Toledo", "tipo": "CABECERA"}, "geometry": {"type": "Point", "coordinates": [-75.6955523146121, 7.01313026615422]}}, {"type": "Feature", "properties": {"nombre": "Turbo", "depto": "ANTIOQUIA", "cod_dane": "058371000", "municipio": "Turbo", "tipo": "CABECERA"}, "geometry": {"type": "Point", "coordinates": [-76.7351634531578, 8.09275267527982]}}, {"type": "Feature", "properties": {"nombre": "Uramita", "depto": "ANTIOQUIA", "cod_dane": "058421000", "municipio": "Uramita", "tipo": "CABECERA"}, "geometry": {"type": "Point", "coordinates": [-76.1764632030661, 6.90162123384851]}}, {"type": "Feature", "properties": {"nombre": "Urrao", "depto": "ANTIOQUIA", "cod_dane": "058471000", "municipio": "Urrao", "tipo": "CABECERA"}, "geometry": {"type": "Point", "coordinates": [-76.135454004578, 6.31653578069975]}}, {"type": "Feature", "properties": {"nombre": "Uveros", "depto": "ANTIOQUIA", "cod_dane": "056592003", "municipio": "San Juan de Uraba", "tipo": "VEREDA"}, "geometry": {"type": "Point", "coordinates": [-76.5845589946566, 8.75021761190397]}}, {"type": "Feature", "properties": {"nombre": "Valdivia", "depto": "ANTIOQUIA", "cod_dane": "058541000", "municipio": "Valdivia", "tipo": "CABECERA"}, "geometry": {"type": "Point", "coordinates": [-75.4430926810291, 7.16591100906674]}}, {"type": "Feature", "properties": {"nombre": "Valparaiso", "depto": "ANTIOQUIA", "cod_dane": "058561000", "municipio": "Valparaiso", "tipo": "CABECERA"}, "geometry": {"type": "Point", "coordinates": [-75.6280682401777, 5.61821315110687]}}, {"type": "Feature", "properties": {"nombre": "Vda. Dos Quebradas", "depto": "ANTIOQUIA", "cod_dane": "056492012", "municipio": "San Carlos", "tipo": "VEREDA"}, "geometry": {"type": "Point", "coordinates": [-75.0374537366841, 6.16838088394444]}}, {"type": "Feature", "properties": {"nombre": "Vda. Vallejuelos", "depto": "ANTIOQUIA", "cod_dane": "056492014", "municipio": "San Carlos", "tipo": "VEREDA"}, "geometry": {"type": "Point", "coordinates": [-75.0248631370996, 6.20258474948362]}}, {"type": "Feature", "properties": {"nombre": "Vegachi", "depto": "ANTIOQUIA", "cod_dane": "058581000", "municipio": "Vegachi", "tipo": "CABECERA"}, "geometry": {"type": "Point", "coordinates": [-74.8007458079127, 6.77441152416584]}}, {"type": "Feature", "properties": {"nombre": "Vegas De Segovia", "depto": "ANTIOQUIA", "cod_dane": "058952008", "municipio": "Zaragoza", "tipo": "VEREDA"}, "geometry": {"type": "Point", "coordinates": [-75.0301060201722, 7.48969196620947]}}, {"type": "Feature", "properties": {"nombre": "Venecia", "depto": "ANTIOQUIA", "cod_dane": "058611000", "municipio": "Venecia", "tipo": "CABECERA"}, "geometry": {"type": "Point", "coordinates": [-75.7387202345899, 5.96723583990623]}}, {"type": "Feature", "properties": {"nombre": "Versalles", "depto": "ANTIOQUIA", "cod_dane": "056902005", "municipio": "Santo Domingo", "tipo": "VEREDA"}, "geometry": {"type": "Point", "coordinates": [-75.0947119378287, 6.53980936469477]}}, {"type": "Feature", "properties": {"nombre": "Versalles", "depto": "ANTIOQUIA", "cod_dane": "056792004", "municipio": "Santa Barbara", "tipo": "VEREDA"}, "geometry": {"type": "Point", "coordinates": [-75.5904958957309, 5.96436953201555]}}, {"type": "Feature", "properties": {"nombre": "Vigia Del Fuerte", "depto": "ANTIOQUIA", "cod_dane": "058731000", "municipio": "Vigia Del Fuerte", "tipo": "CABECERA"}, "geometry": {"type": "Point", "coordinates": [-76.89968185202, 6.59157712356622]}}, {"type": "Feature", "properties": {"nombre": "Villa Alegria", "depto": "ANTIOQUIA", "cod_dane": "051012008", "municipio": "Ciudad Bolivar", "tipo": "VEREDA"}, "geometry": {"type": "Point", "coordinates": [-76.0167957280773, 5.78807657791343]}}, {"type": "Feature", "properties": {"nombre": "Villa Arteaga", "depto": "ANTIOQUIA", "cod_dane": "054802003", "municipio": "Mutata", "tipo": "VEREDA"}, "geometry": {"type": "Point", "coordinates": [-76.493819853466, 7.35862251802705]}}, {"type": "Feature", "properties": {"nombre": "Virginias", "depto": "ANTIOQUIA", "cod_dane": "055792002", "municipio": "Puerto Berrio", "tipo": "VEREDA"}, "geometry": {"type": "Point", "coordinates": [-74.6863698052706, 6.39539024830937]}}, {"type": "Feature", "properties": {"nombre": "Vista Hermosa", "depto": "ANTIOQUIA", "cod_dane": "056972005", "municipio": "Santuario", "tipo": "VEREDA"}, "geometry": {"type": "Point", "coordinates": [-75.2676566495149, 6.1512946980947]}}, {"type": "Feature", "properties": {"nombre": "Yali", "depto": "ANTIOQUIA", "cod_dane": "058851000", "municipio": "Yali", "tipo": "CABECERA"}, "geometry": {"type": "Point", "coordinates": [-74.8450806169314, 6.67166539595854]}}, {"type": "Feature", "properties": {"nombre": "Yarumal", "depto": "ANTIOQUIA", "cod_dane": "058871000", "municipio": "Yarumal", "tipo": "CABECERA"}, "geometry": {"type": "Point", "coordinates": [-75.4218820974458, 6.96698899181758]}}, {"type": "Feature", "properties": {"nombre": "Yarumalito", "depto": "ANTIOQUIA", "cod_dane": "056792009", "municipio": "Santa Barbara", "tipo": "VEREDA"}, "geometry": {"type": "Point", "coordinates": [-75.5789289725425, 5.95158791154966]}}, {"type": "Feature", "properties": {"nombre": "Yolombo", "depto": "ANTIOQUIA", "cod_dane": "058901000", "municipio": "Yolombo", "tipo": "CABECERA"}, "geometry": {"type": "Point", "coordinates": [-75.0178361201507, 6.59779140176261]}}, {"type": "Feature", "properties": {"nombre": "Zapata", "depto": "ANTIOQUIA", "cod_dane": "054902004", "municipio": "Necocli", "tipo": "VEREDA"}, "geometry": {"type": "Point", "coordinates": [-76.6408174827438, 8.68685802137571]}}, {"type": "Feature", "properties": {"nombre": "Zaragoza", "depto": "ANTIOQUIA", "cod_dane": "058951000", "municipio": "Zaragoza", "tipo": "CABECERA"}, "geometry": {"type": "Point", "coordinates": [-74.8713772790978, 7.49094916130352]}}, {"type": "Feature", "properties": {"nombre": "Zungo Carretera", "depto": "ANTIOQUIA", "cod_dane": "050452003", "municipio": "Apartado", "tipo": "VEREDA"}, "geometry": {"type": "Point", "coordinates": [-76.6514244966141, 7.82962530483643]}}, {"type": "Feature", "properties": {"nombre": "Zungo Embarcadero", "depto": "ANTIOQUIA", "cod_dane": "051472004", "municipio": "Carepa", "tipo": "VEREDA"}, "geometry": {"type": "Point", "coordinates": [-76.742321116385, 7.85085105451284]}}]}